     2.11           OBSERVATION DATA    G (GPS)             RINEX VERSION / TYPE
teqc  2013Nov15     NGS Web User        20150526 18:10:55UTCPGM / RUN BY / DATE
Solaris 5.10|UltraSparc IIIi|cc -m64 SS12.1|=+|*Sparc       COMMENT
teqc  2014Jan16     CORS-ADM Account    20141112 20:10:48UTCCOMMENT
Solaris x86 5.10|AMD64|cc SC5.8 -xarch=amd64|=+|=+          COMMENT
teqc  2014Jan16     CORS-ADM Account    20141012 01:21:06UTCCOMMENT
     2.10           OBSERVATION DATA    G (GPS)             COMMENT
NSTB2RINEX 2.06     NOAA/NOS/NGS/CORS   20141012 01:20:35UTCCOMMENT
Forced Modulo Decimation to 30 seconds                      COMMENT
ZMP1                                                        MARKER NAME
Tom McHugh          FAA                                     OBSERVER / AGENCY
7BC1                NOV WAASGII         2.003               REC # / TYPE / VERS
unknown             MPL_WAAS_2225NW NONE                    ANT # / TYPE
  -249977.5300 -4539298.5130  4458954.8020                  APPROX POSITION XYZ
        0.0000        0.0000        0.0000                  ANTENNA: DELTA H/E/N
     1     1                                                WAVELENGTH FACT L1/2
     7    L1    L2    P1    P2    C1    S1    S2            # / TYPES OF OBSERV
    30.0000                                                 INTERVAL
teqc windowed: start @ 2014 Oct 11 15:00:00.000             COMMENT
teqc windowed:  end  @ 2014 Oct 11 16:00:00.000             COMMENT
teqc edited: all GLONASS satellites excluded                COMMENT
  2014    10    11    15     0    0.0000000     GPS         TIME OF FIRST OBS
                                                            END OF HEADER
 14 10 11 15  0  0.0000000  0 12G01G02G04G06G11G12G17G20G24G28G30G32
 120732658.4044   94077406.1104                   22974678.8444   22974664.0214
        44.3004         41.8004
 132606270.5984  103329585.1044                   25234147.4434   25234134.8024
        40.3004         36.2004
 119150103.6404   92844256.1084                   22673526.7364   22673514.6134
        45.8004         39.9004
 116913208.5914   91101225.2154                   22247848.8634   22247836.8084
        49.6004         44.5004
 130984211.9494  102065608.8354                   24925487.6474   24925470.2994
        36.2004         34.6004
 133990905.9944  104408512.4944                   25497629.0654   25497621.4854
        36.1004         32.6004
 108140313.2994   84265194.3674                   20578422.7674   20578414.9594
        55.9004         51.1004
 122332746.6624   95324257.1434                   23279149.2654   23279138.8904
        44.8004         39.2004
 122318988.0264   95313509.1974                   23276537.6794   23276526.9154
        44.9004         41.9004
 111301452.8914   86728414.9644                   21179971.9434   21179963.4324
        53.0004         45.6004
 130446191.9484  101646365.3014                   24823125.2604   24823107.0834
        41.6004         38.4004
 129075335.9184  100578199.3654                   24562233.1284   24562219.0264
        37.7004         35.6004
 14 10 11 15  0 30.0000000  0 12G01G02G04G06G11G12G17G20G24G28G30G32
 120822172.1284   94147157.0054                   22991711.5734   22991698.8594
        45.0004         40.7004
 132501574.9254  103248004.0044                   25214224.6024   25214212.4804
        41.2004         36.6004
 119240733.6154   92914876.7874                   22690772.3214   22690760.7504
        45.7004         39.1004
 116817303.0054   91026493.6444                   22229600.2514   22229586.7674
        49.8004         44.2004
 131097190.7894  102153644.1744                   24946984.8664   24946971.2284
        36.3004         33.9004
 133887604.9934  104328018.1124                   25477972.3984   25477960.3754
        36.2004         34.9004
 108145806.5674   84269474.8024                   20579468.3124   20579460.3744
        56.3004         50.6004
 122284093.4574   95286345.6644                   23269888.9614   23269879.0694
        45.2004         37.8004
 122257696.5284   95265749.5804                   23264874.6534   23264863.4894
        45.5004         41.4004
 111343617.7174   86761270.6344                   21187995.5964   21187987.0834
        53.3004         44.9004
 130561880.4414  101736511.8744                   24845141.1324   24845123.1744
        42.3004         37.2004
 129085820.9764  100586369.5074                   24564226.4164   24564213.0024
        37.7004         34.7004
 14 10 11 15  1  0.0000000  0 12G01G02G04G06G11G12G17G20G24G28G30G32
 120912004.9624   94217156.5704                   23008807.2064   23008793.7544
        44.5004         41.2004
 132396904.6084  103166442.6084                   25194305.4314   25194293.9644
        40.5004         37.2004
 119331717.5404   92985773.2794                   22708085.9184   22708075.2974
        46.1004         38.8004
 116721708.7394   90952004.6834                   22211408.3294   22211395.3824
        49.1004         44.7004
 131210242.0724  102241735.9854                   24968498.6674   24968484.3614
        36.2004         34.1004
 133784268.0284  104247495.6934                   25458305.1074   25458297.3904
        37.2004         34.2004
 108151597.4994   84273987.1824                   20580570.7424   20580562.6224
        56.1004         51.2004
 122235891.3734   95248785.6664                   23260717.4074   23260706.8174
        45.6004         39.0004
 122196886.1824   95218364.8874                   23253304.1034   23253292.2504
        46.3004         42.0004
 111386128.8244   86794396.1394                   21196084.9084   21196077.4384
        53.4004         45.1004
 130677562.7574  101826653.6054                   24867154.4534   24867136.1384
        40.6004         38.8004
 129096857.7414  100594969.5664                   24566327.5354   24566313.3734
        38.2004         34.0004
 14 10 11 15  1 30.0000000  0 12G01G02G04G06G11G12G17G20G24G28G30G32
 121002154.2074   94287402.6544                   23025960.7984   23025946.8974
        43.4004         42.2004
 132292261.0354  103084902.0984                   25174393.3164   25174381.0384
        39.9004         37.7004
 119423052.4794   93056943.3024                   22725467.2694   22725456.4904
        46.5004         38.7004
 116626427.9384   90877759.9424                   22193276.4424   22193263.8164
        49.3004         45.2004
 131323363.5564  102329882.5364                   24990020.7934   24990015.0014
        39.2004         30.8004
 133680896.5614  104166946.4094                   25438638.1344   25438629.9314
        37.7004         33.4004
 108157685.1354   84278730.7594                   20581729.3854   20581720.6314
        55.6004         51.5004
 122188142.6364   95211578.9384                   23251630.8024   23251620.9614
        45.7004         39.8004
 122136558.8644   95171356.5764                   23241824.6334   23241814.0364
        47.0004         42.5004
 111428986.0654   86827791.3464                   21204240.3594   21204232.6774
        53.2004         45.3004
 130793236.2364  101916788.4684                   24889168.1114   24889149.1054
        40.1004         39.1004
 129108446.1934  100603999.5064                   24568531.9724   24568518.9114
        38.2004         36.8004
 14 10 11 15  2  0.0000000  0 12G01G02G04G06G11G12G17G20G24G28G30G32
 121092617.3824   94357893.3774                   23043176.1924   23043162.4134
        43.5004         41.6004
 132187646.2554  103003383.9914                   25154484.8964   25154470.7284
        36.5004         39.9004
 119514735.5534   93128384.5934                   22742913.1434   22742902.5194
        45.6004         39.5004
 116531463.0824   90803761.3984                   22175205.0394   22175192.5204
        49.2004         44.8004
 131436553.3964  102418082.3574                   25011561.2944   25011552.8724
        38.1004         31.8004
 133577491.4174  104086370.8704                   25418957.1784   25418950.5214
        37.2004         33.3004
 108164069.4884   84283705.5494                   20582944.0694   20582935.6334
        55.8004         51.2004
 122140850.2024   95174727.7604                   23242631.2954   23242622.5494
        46.9004         38.8004
 122076716.6074   95124726.2264                   23230437.4204   23230426.0484
        47.7004         42.6004
 111472190.1734   86861456.8564                   21212461.9144   21212454.1144
        53.2004         45.0004
 130908898.7194  102006914.8044                   24911177.0434   24911159.1984
        41.1004         39.2004
 129120586.6514  100613459.5714                   24570842.3984   24570830.5764
        40.0004         34.9004
 14 10 11 15  2 30.0000000  0 12G01G02G04G06G11G12G17G20G24G28G30G32
 121183391.7484   94428626.6014                   23060449.6474   23060434.6934
        43.1004         42.0004
 132083062.3974  102921890.0234                   25134584.3984   25134573.1054
        35.5004         39.6004
 119606764.4534   93200095.3314                   22760425.8134   22760416.2434
        46.2004         38.2004
 116436816.2914   90730010.7184                   22157195.3124   22157181.9714
        49.3004         45.2004
 131549809.2774  102506333.6514                   25033115.8244   25033104.8964
        39.7004         31.1004
 133474054.5194  104005770.5804                   25399276.3834   25399265.6304
        36.8004         35.9004
 108170749.7774   84288910.9404                   20584215.0454   20584206.8034
        55.8004         51.2004
 122094016.1014   95138233.7224                   23233719.4214   23233710.9364
        47.2004         38.8004
 122017361.7134   95078475.6204                   23219143.5224   23219132.5654
        48.1004         42.8004
 111515741.4414   86895392.8664                   21220749.6454   21220740.7934
        52.9004         45.2004
 131024547.6664  102097030.6294                   24933185.2954   24933165.9754
        41.2004         38.7004
 129133278.9494  100623349.6884                   24573259.2294   24573246.1134
        40.4004         34.5004
 14 10 11 15  3  0.0000000  0 12G01G02G04G06G11G12G17G20G24G28G30G32
 121274474.5824   94499600.1594                   23077782.4194   23077766.6274
        42.6004         43.1004
 131978511.0784  102840421.3244                   25114689.5274   25114679.2794
        37.3004         37.3004
 119699135.8444   93272072.9684                   22778003.3724   22777994.0444
        46.5004         38.1004
 116342489.6744   90656509.5144                   22139245.1624   22139231.5174
        49.0004         46.0004
 131663128.9384  102594634.6174                   25054679.0064   25054668.6714
        38.1004         31.1004
 133370586.3224  103925145.9024                   25379584.5154   25379577.2894
        37.7004         35.4004
 108177724.9944   84294346.1454                   20585542.5484   20585534.3574
        55.8004         51.2004
 122047642.6384   95102098.6054                   23224894.9534   23224885.7034
        47.0004         38.9004
 121958496.3444   95032606.4744                   23207940.8434   23207930.2534
        47.3004         43.2004
 111559639.5444   86929599.1424                   21229103.4384   21229094.7734
        52.6004         45.3004
 131140180.4714  102187133.9114                   24955188.0064   24955169.5044
        42.2004         38.1004
 129146523.0834  100633669.7914                   24575777.8124   24575766.2264
        40.9004         36.1004
 14 10 11 15  3 30.0000000  0 12G01G02G04G06G11G12G17G20G24G28G30G32
 121365863.2524   94570812.0094                   23095173.1914   23095160.7694
        44.3004         41.2004
 131873993.9634  102758979.3624                   25094799.5604   25094789.1894
        38.3004         40.4004
 119791846.9884   93344315.3474                   22795645.2104   22795635.4804
        45.7004         38.2004
 116248485.4844   90583259.5614                   22121356.2894   22121343.7474
        49.8004         45.4004
 131776510.4794  102682983.7644                   25076253.5004   25076244.9594
        38.5004         28.5004
 133267088.0464  103844497.8174                   25359889.8854   25359882.9924
        38.2004         33.0004
 108184994.8474   84300010.9344                   20586926.0474   20586917.6874
        55.9004         51.0004
 122001732.0604   95066324.1844                   23216157.1474   23216149.0894
        46.9004         37.5004
 121900122.1084   94987120.0454                   23196833.0954   23196821.4794
        47.0004         43.4004
 111603884.6224   86964075.7834                   21237522.8064   21237514.1654
        52.9004         45.0004
 131255794.8084  102277222.8724                   24977190.4544   24977171.4384
        41.5004         36.2004
 129160319.0844  100644419.9054                   24578402.9364   24578391.5204
        40.9004         34.7004
 14 10 11 15  4  0.0000000  0 12G01G02G04G06G11G12G17G20G24G28G30G32
 121457555.2944   94642260.3034                   23112621.5724   23112608.5184
        44.2004         41.6004
 131769513.4674  102677566.1264                   25074916.0964   25074906.5864
        40.0004         38.1004
 119884895.5054   93416820.6134                   22813353.7624   22813342.3864
        45.4004         38.8004
 116154806.1404   90510262.7284                   22103530.1704   22103516.9774
        49.7004         46.0004
 131889952.1574  102771379.8054                   25097841.4184   25097832.6704
        38.5004         32.3004
 133163561.3064  103763827.5274                   25340192.6184   25340179.9544
        37.1004         36.7004
 108192559.0954   84305905.1274                   20588365.3824   20588356.9094
        55.4004         51.5004
 121956286.9874   95030912.4264                   23207508.1604   23207502.2844
        46.7004         37.2004
 121842241.2644   94942018.0904                   23185818.6514   23185806.6394
        46.6004         43.9004
 111648476.8434   86998822.9324                   21246008.5684   21246000.3724
        52.8004         45.3004
 131371388.4904  102367295.7784                   24999186.7834   24999167.4354
        38.9004         35.5004
 129174667.0824  100655600.1284                   24581133.6564   24581124.9374
        41.0004         34.2004
 14 10 11 15  4 30.0000000  0 12G01G02G04G06G11G12G17G20G24G28G30G32
 121549547.4844   94713942.4554                   23130127.2904   23130113.6474
        44.5004         41.1004
 131665070.8374  102596182.5144                   25055042.8374   25055032.2834
        40.3004         38.2004
 119978277.9884   93489586.1094                   22831122.4284   22831113.0504
        46.1004         38.8004
 116061453.2514   90437520.2604                   22085765.6034   22085751.3884
        49.8004         45.3004
 132003451.2974  102859820.6554                   25119438.9964   25119430.5914
        37.9004         31.0004
 133060006.2174  103683135.1814                   25320484.1804   25320475.3784
        37.3004         34.7004
 108200416.4864   84312027.7274                   20589860.6914   20589852.2014
        55.9004         51.2004
 121911309.2664   94995864.8464                   23198949.1604   23198941.5344
        46.6004         37.6004
 121784855.0584   94897301.5544                   23174897.6214   23174886.5184
        47.3004         42.7004
 111693415.8664   87033840.3044                   21254560.2984   21254551.3974
        53.1004         45.0004
 131486958.4194  102457350.1774                   25021178.9394   25021160.8724
        39.7004         36.1004
 129189566.3974  100667209.9484                   24583969.2734   24583959.5344
        41.5004         34.1004
 14 10 11 15  5  0.0000000  0 12G01G02G04G06G11G12G17G20G24G28G30G32
 121641837.5254   94785856.6934                   23147689.4194   23147675.8454
        44.5004         41.5004
 131560667.9914  102514830.0594                   25035174.5714   25035163.2784
        38.6004         38.6004
 120071991.7464   93562609.7484                   22848956.9574   22848945.6864
        45.3004         39.1004
 115968429.3454   90365034.1484                   22068063.5774   22068050.5374
        50.2004         45.1004
 132117006.1694  102948304.8434                   25141049.7454   25141038.3764
        38.6004         30.4004
 132956424.5984  103602422.1554                   25300774.8614   25300764.4274
        37.6004         35.8004
 108208566.7654   84318378.5514                   20591411.8474   20591403.3654
        55.9004         51.2004
 121866801.3984   94961183.4144                   23190482.0814   23190472.0604
        46.1004         39.6004
 121727966.0214   94852972.4134                   23164071.9594   23164060.5984
        46.7004         43.1004
 111738702.6344   87069128.6624                   21263178.2334   21263169.6164
        53.0004         44.8004
 131602502.4394  102547384.4314                   25043168.7124   25043147.0614
        38.3004         36.3004
 129205017.3574  100679249.6334                   24586911.2624   24586897.4004
        39.9004         36.4004
 14 10 11 15  5 30.0000000  0 12G01G02G04G06G11G12G17G20G24G28G30G32
 121734422.5634   94858000.7774                   23165307.3344   23165295.1814
        45.1004         41.1004
 131456306.5424  102433509.9354                   25015314.8784   25015304.3494
        39.7004         37.5004
 120166033.9904   93635889.3224                   22866852.5664   22866840.9964
        45.7004         38.4004
 115875736.4194   90292805.9314                   22050424.3064   22050411.1084
        49.8004         45.3004
 132230614.6544  103036830.8674                   25162667.1774   25162656.4724
        38.0004         30.8004
 132852817.8694  103521689.6074                   25281057.1734   25281048.8724
        37.2004         34.3004
 108217009.1084   84324956.9524                   20593018.2134   20593009.9034
        56.0004         51.3004
 121822765.4044   94926869.6524                   23182101.9474   23182090.8914
        44.8004         40.3004
 121671575.3374   94809031.6074                   23153341.9504   23153327.7804
        45.4004         44.2004
 111784336.7584   87104687.6764                   21271862.0234   21271853.7184
        52.9004         44.8004
 131718017.9984  102637396.4114                   25065146.9274   25065128.7364
        39.7004         38.3004
 129221019.5414  100691718.8714                   24589955.6354   24589943.8914
        40.5004         35.7004
 14 10 11 15  6  0.0000000  0 12G01G02G04G06G11G12G17G20G24G28G30G32
 121827300.1614   94930372.8354                   23182981.6624   23182968.7004
        45.3004         41.0004
 131351988.3134  102352223.4614                   24995464.1674   24995450.5094
        38.9004         38.8004
 120260402.3424   93709423.0324                   22884809.5554   22884798.1884
        44.9004         39.0004
 115783376.7594   90220837.4184                   22032850.0274   22032835.4094
        50.1004         45.7004
 132344274.9364  103125397.2584                   25184297.4904   25184286.1814
        38.0004         30.2004
 132749187.2064  103440938.4004                   25261336.3204   25261326.6464
        36.2004         34.2004
 108225743.3694   84331762.8264                   20594680.1334   20594672.2894
        56.2004         50.7004
 121779203.9614   94892925.6674                   23173813.0134   23173803.2134
        45.9004         39.7004
 121615685.6564   94765481.1884                   23142705.8544   23142693.7164
        46.1004         42.9004
 111830318.6034   87140517.6364                   21280612.1034   21280603.6794
        53.0004         44.3004
 131833502.7984  102727384.4924                   25087126.6474   25087106.6064
        41.1004         39.1004
 129237573.1074  100704617.7124                   24593106.1944   24593094.6624
        40.7004         35.4004
 14 10 11 15  6 30.0000000  0 12G01G02G04G06G11G12G17G20G24G28G30G32
 121920467.3934   95002970.5884                   23200712.0494   23200697.3814
        44.7004         42.0004
 131247714.6434  102270971.7644                   24975620.6204   24975607.6244
        39.6004         38.8004
 120355093.4924   93783208.2384                   22902828.4624   22902817.7404
        44.7004         39.3004
 115691352.4504   90149130.2204                   22015337.9554   22015325.0514
        50.8004         45.7004
 132457984.6974  103214002.1964                   25205937.8334   25205926.9594
        39.5004         31.5004
 132645533.4864  103360169.0614                   25241616.2844   25241604.6544
        38.5004         35.1004
 108234768.6324   84338795.4544                   20596397.8404   20596389.4134
        55.9004         50.9004
 121736118.9314   94859352.9114                   23165614.2394   23165603.1124
        45.0004         40.5004
 121560298.8044   94722322.5764                   23132164.8634   23132153.1354
        45.3004         42.6004
 111876647.8584   87176618.3084                   21289428.3824   21289420.2044
        53.0004         44.5004
 131948954.2804  102817346.5884                   25109094.3194   25109074.7694
        40.0004         39.9004
 129254677.6574  100717945.8984                   24596361.0564   24596347.9494
        39.4004         36.7004
 14 10 11 15  7  0.0000000  0 12G01G02G04G06G11G12G17G20G24G28G30G32
 122013921.7324   95075792.0404                   23218495.4674   23218480.7604
        44.3004         41.8004
 131143487.5084  102189756.2544                   24955785.4964   24955774.4194
        39.7004         37.6004
 120450104.6684   93857242.8404                   22920909.5504   22920899.5514
        45.7004         38.5004
 115599665.6434   90077685.9934                   21997889.6684   21997876.5424
        50.1004         45.9004
 132571741.9074  103302644.0974                   25227582.9574   25227573.6614
        39.7004         30.0004
 132541858.4044  103279383.2364                   25221887.3944   25221877.4004
        39.7004         34.2004
 108244084.6374   84346054.6434                   20598170.9294   20598162.1774
        56.0004         50.9004
 121693512.5514   94826153.0924                   23157505.8934   23157495.3244
        44.6004         39.7004
 121505416.3454   94679556.9864                   23121722.1284   23121709.2194
        45.9004         42.6004
 111923324.7204   87212989.8394                   21298310.0784   21298302.8984
        53.7004         44.2004
 132064370.0854  102907280.8974                   25131056.8494   25131037.0064
        38.5004         40.1004
 129272332.9204  100731703.2644                   24599720.3494   24599706.4294
        39.3004         36.0004
 14 10 11 15  7 30.0000000  0 12G01G02G04G06G11G12G17G20G24G28G30G32
 122107660.4824   95148835.1174                   23236333.1034   23236320.6044
        45.1004         41.2004
 131039308.7274  102108578.3924                   24935961.8134   24935949.7004
        39.5004         37.5004
 120545433.1634   93931524.6894                   22939050.3794   22939039.2264
        45.2004         38.0004
 115508318.4444   90006506.3924                   21980507.4974   21980492.7774
        50.0004         46.9004
 132685545.0704  103391321.8714                   25249241.7404   25249229.9044
        39.5004         29.3004
 132438163.1864  103198581.6864                   25202151.1954   25202146.2554
        40.4004         35.2004
 108253690.6044   84353539.7824                   20599998.8274   20599991.0624
        56.2004         50.9004
 121651386.9744   94793327.9244                   23149489.7114   23149479.3024
        44.3004         39.6004
 121451040.2984   94637186.0014                   23111374.3554   23111361.4164
        45.5004         43.3004
 111970349.4364   87249632.4474                   21307259.0574   21307250.5584
        52.9004         44.7004
 132179747.8334  102997185.5354                   25153011.5004   25152992.9494
        37.1004         39.0004
 129290538.8844  100745889.7284                   24603185.9274   24603171.7814
        39.2004         34.3004
 14 10 11 15  8  0.0000000  0 12G01G02G04G06G11G12G17G20G24G28G30G32
 122201681.2754   95222097.9884                   23254223.6304   23254212.9324
        45.3004         40.8004
 130935180.3644  102027439.7144                   24916147.0834   24916133.9674
        39.9004         38.6004
 120641076.2824   94006051.7304                   22957249.7064   22957238.2814
        44.0004         38.3004
 115417313.3024   89935593.3484                   21963189.6744   21963175.4654
        49.8004         47.5004
 132799392.0404  103480033.7834                   25270905.7734   25270892.6114
        37.6004         31.9004
 132334448.9594  103117765.3204                   25182418.1704   25182411.1784
        40.1004         33.9004
 108263586.2824   84361250.6754                   20601881.8654   20601873.6694
        55.8004         51.1004
 121609744.8594   94760879.4704                   23141565.8014   23141556.2494
        44.5004         39.9004
 121397172.7144   94595211.2364                   23101123.7534   23101112.6104
        46.0004         43.0004
 112017722.0554   87286546.1204                   21316273.9754   21316265.6174
        53.0004         44.8004
 132295085.3504  103087058.8224                   25174961.3664   25174941.5844
        37.9004         38.5004
 129309295.6054  100760505.3194                   24606753.5384   24606741.7144
        39.3004         35.1004
 14 10 11 15  8 30.0000000  0 12G01G02G04G06G11G12G17G20G24G28G30G32
 122295980.6564   95295577.9314                   23272168.8844   23272156.7784
        44.5004         40.6004
 130831103.2784  101946340.9614                   24896340.5184   24896330.0654
        42.5004         37.8004
 120737030.6244   94080821.2644                   22975509.2464   22975498.0684
        44.0004         39.2004
 115326651.4894   89864947.8304                   21945937.1954   21945923.3624
        50.3004         47.4004
 132913280.2364  103568777.7844                   25292577.8024   25292564.6604
        38.7004         31.4004
 132230716.4004  103036934.6924                   25162678.3854   25162668.7984
        38.8004         35.5004
 108273770.2804   84369186.2364                   20603819.6384   20603811.2454
        55.7004         51.2004
 121568587.3864   94728808.6574                   23133733.8664   23133723.6504
        44.8004         40.1004
 121343813.9224   94553632.9484                   23090969.8244   23090958.9234
        46.5004         42.6004
 112065441.6714   87323730.1904                   21325354.7514   21325345.2404
        52.1004         44.9004
 132410379.3854  103176898.2424                   25196900.9604   25196879.2494
        37.6004         38.1004
 129328601.7744  100775549.1114                   24610425.7594   24610412.1464
        37.3004         35.2004
 14 10 11 15  9  0.0000000  0 12G01G02G04G06G11G12G17G20G24G28G30G32
 122390556.7934   95369273.5294                   23290166.0504   23290154.4594
        44.8004         41.2004
 130727080.3814  101865284.4054                   24876546.4664   24876535.5504
        43.9004         38.7004
 120833294.3004   94155831.8264                   22993828.9304   22993816.3204
        44.5004         39.7004
 115236335.9464   89794572.1144                   21928750.2344   21928735.8574
        50.1004         47.1004
 133027208.3684  103657552.9354                   25314255.0104   25314246.2964
        39.9004         32.6004
 132126968.0474  102956091.7554                   25142934.2374   25142926.6914
        40.7004         35.7004
 108284242.9914   84377346.7594                   20605812.5974   20605803.8694
        55.7004         50.9004
 121527917.5794   94697117.8364                   23125994.0554   23125982.8484
        43.9004         40.7004
 121290967.4824   94512453.8764                   23080913.0294   23080901.0314
        45.8004         42.5004
 112113509.6964   87361185.7454                   21334501.6484   21334493.4914
        52.7004         43.8004
 132525628.3054  103266702.5074                   25218828.4654   25218814.7564
        40.2004         32.7004
 129348458.1294  100791021.5984                   24614204.0254   24614190.1324
        37.2004         34.5004
 14 10 11 15  9 30.0000000  0 12G01G02G04G06G11G12G17G20G24G28G30G32
 122485406.6184   95443182.3714                   23308217.0464   23308203.4374
        44.2004         42.5004
 130623112.5164  101784270.7484                   24856761.9704   24856749.3944
        43.2004         40.6004
 120929863.9014   94231080.7604                   23012204.9584   23012193.2084
        43.9004         38.7004
 115146368.3804   89724467.5684                   21911629.6944   21911616.2854
        50.1004         46.9004
 133141174.3024  103746357.5624                   25335940.2464   25335931.8114
        39.0004         31.5004
 132023204.0484  102875236.6244                   25123188.3664   25123182.1984
        40.3004         35.9004
 108295003.2794   84385731.3704                   20607860.3004   20607851.5804
        55.4004         51.1004
 121487737.1384   94665808.3234                   23118349.4094   23118336.5264
        43.5004         41.5004
 121238634.5594   94471674.9544                   23070954.5534   23070941.3624
        45.0004         42.9004
 112161925.3744   87398912.1984                   21343714.9774   21343707.0274
        52.5004         43.9004
 132640829.3494  103356469.6064                   25240752.8964   25240736.0524
        41.3004         33.8004
 129368863.8814  100806922.1994                   24618087.3074   24618074.4754
        38.0004         34.1004
 14 10 11 15 10  0.0000000  0 12G01G02G04G06G11G12G17G20G24G28G30G32
 122580527.3944   95517302.3214                   23326317.0834   23326302.9884
        42.7004         41.8004
 130519201.7644  101703301.6034                   24836987.5524   24836976.1914
        43.1004         39.7004
 121026736.6154   94306565.8814                   23030638.2364   23030626.1024
        43.3004         38.3004
 115056750.7834   89654635.7084                   21894576.8314   21894563.1104
        50.7004         46.8004
 133255175.8284  103835189.9284                   25357635.2654   25357626.4124
        39.4004         31.6004
 131919426.1874  102794370.7484                   25103439.8594   25103433.3344
        37.9004         35.2004
 108306050.3494   84394339.4494                   20609962.7704   20609954.3204
        56.0004         51.0004
 121448047.8594   94634881.5444                   23110795.3114   23110785.8354
        45.7004         39.5004
 121186816.5514   94431297.2674                   23061094.8154   23061081.8304
        46.1004         43.3004
 112210688.7124   87436909.5514                   21352993.9984   21352986.0504
        52.6004         43.8004
 132755980.1184  103446197.4584                   25262665.3074   25262648.4514
        41.3004         32.8004
 129389818.5804  100823250.5564                   24622075.0964   24622063.0624
        39.2004         34.0004
 14 10 11 15 10 30.0000000  0 12G01G02G04G06G11G12G17G20G24G28G30G32
 122675916.5544   95591631.4594                   23344467.6734   23344454.4594
        43.0004         40.7004
 130415350.1684  101622378.5824                   24817223.8784   24817212.4224
        40.7004         39.6004
 121123909.7034   94382285.1084                   23049130.1454   23049120.1224
        45.0004         38.0004
 114967485.3554   89585078.2844                   21877589.9334   21877576.1834
        50.1004         46.2004
 133369211.1624  103924048.7264                   25379336.4684   25379324.4344
        36.7004         30.6004
 131815635.6644  102713494.9054                   25083688.4594   25083682.6624
        39.4004         32.3004
 108317384.1994   84403171.0004                   20612119.7244   20612111.1294
        55.7004         50.5004
 121408852.1184   94604339.3264                   23103337.0444   23103326.5574
        45.5004         39.7004
 121135515.7854   94391322.6094                   23051332.3594   23051321.0384
        47.3004         41.8004
 112259799.9074   87475177.9814                   21362339.8974   21362331.5264
        52.6004         43.7004
 132871078.2684  103535884.3204                   25284569.0434   25284551.9244
        40.9004         35.9004
 129411322.0224  100840006.5254                   24626166.7924   24626152.7564
        37.3004         35.6004
 14 10 11 15 11  0.0000000  0 12G01G02G04G06G11G12G17G20G24G28G30G32
 122771571.7334   95666167.8834                   23362671.6104   23362658.1524
        43.1004         40.8004
 130311559.4764  101541503.0654                   24797474.1264   24797462.0624
        40.3004         37.5004
 121221380.6394   94458236.3894                   23067679.3904   23067669.0304
        45.9004         38.5004
 114878574.3514   89515797.0274                   21860670.6154   21860657.3464
        50.6004         46.6004
 133483278.7844  104012932.5234                   25401041.2424   25401031.8564
        37.6004         31.9004
 131711834.7624  102632610.9954                   25063937.3644   25063927.1644
        37.6004         36.0004
 108329004.2204   84412225.5514                   20614330.4804   20614321.9974
        55.3004         51.2004
 121370152.2094   94574183.4434                   23095973.2064   23095962.8314
        45.9004         40.0004
 121084733.9594   94351752.3444                   23041668.1494   23041658.0674
        47.6004         42.4004
 112309258.8934   87513717.4094                   21371751.5764   21371742.7794
        52.1004         44.2004
 132986121.6684  103625528.4464                   25306461.3254   25306440.8564
        38.2004         37.5004
 129433374.0004  100857189.8814                   24630363.8854   24630349.2794
        37.9004         36.7004
 14 10 11 15 11 30.0000000  0 12G01G02G04G06G11G12G17G20G24G28G30G32
 122867490.0894   95740909.3814                   23380925.7184   23380910.2954
        42.0004         42.4004
 130207831.3804  101460676.2164                   24777735.6574   24777723.8414
        40.9004         36.1004
 121319146.5294   94534417.4964                   23086283.9544   23086272.0334
        44.9004         38.9004
 114790019.7554   89446793.4804                   21843818.6764   21843806.0614
        50.7004         45.8004
 133597376.6094  104101840.0374                   25422756.1584   25422743.7194
        37.6004         31.5004
 131608024.2174  102551719.6284                   25044183.7174   25044175.9824
        39.7004         35.3004
 108340909.8764   84421502.6864                   20616595.7384   20616588.0284
        55.7004         50.7004
 121331950.1264   94544415.4914                   23088704.0094   23088694.1614
        46.7004         39.6004
 121034472.2644   94312587.3704                   23032104.0304   23032092.3804
        46.8004         42.6004
 112359065.5834   87552527.7724                   21381229.6624   21381222.2824
        52.8004         43.8004
 133101107.7914  103715127.9214                   25328342.3744   25328324.2904
        38.8004         38.3004
 129455973.9504  100874800.2554                   24634665.0814   24634651.5964
        39.2004         36.0004
 14 10 11 15 12  0.0000000  0 12G01G02G04G06G11G12G17G20G24G28G30G32
 122963668.7934   95815853.7034                   23399227.3204   23399211.9694
        42.5004         41.9004
 130104167.3604  101379899.3254                   24758008.1994   24757998.3164
        42.4004         34.9004
 121417204.3114   94610826.0164                   23104942.5244   23104932.6204
        45.0004         38.2004
 114701823.3464   89378069.0494                   21827035.5454   21827022.6434
        50.9004         45.8004
 133711502.4104  104190769.3014                   25444469.7164   25444461.6074
        37.5004         28.3004
 131504204.9654  102470821.4514                   25024428.3084   25024420.1814
        40.6004         34.1004
 108353100.2084   84431001.6454                   20618915.4024   20618907.3394
        55.8004         50.7004
 121294247.5984   94515036.8064                   23081529.0214   23081519.6434
        47.4004         38.8004
 120984732.7604   94273829.3074                   23022638.9404   23022627.4954
        47.1004         42.6004
 112409220.0304   87591609.1154                   21390773.1374   21390765.2574
        52.5004         43.6004
 133216034.0774  103804680.6984                   25350212.6934   25350192.8074
        37.8004         39.6004
 129479121.2704  100892837.1884                   24639070.3114   24639056.6554
        39.8004         35.9004
 14 10 11 15 12 30.0000000  0 12G01G02G04G06G11G12G17G20G24G28G30G32
 123060105.2014   95890998.8494                   23417577.9424   23417564.1464
        42.9004         41.1004
 130000569.3524  101299173.8204                   24738294.3044   24738282.8224
        43.2004         36.9004
 121515550.9844   94687459.7254                   23123656.6794   23123645.7854
        44.9004         37.4004
 114613987.2234   89309625.3644                   21810321.5064   21810308.6174
        50.7004         46.7004
 133825654.5604  104279719.0924                   25466196.8424   25466181.4874
        35.6004         31.9004
 131400378.4464  102389917.6464                   25004667.8974   25004661.1534
        37.9004         36.2004
 108365574.6794   84440722.0084                   20621289.2894   20621281.0594
        55.4004         50.6004
 121257046.6674   94486048.9904                   23074449.9074   23074439.7574
        46.6004         40.1004
 120935516.7614   94235479.1684                   23013274.1044   23013261.2914
        46.4004         43.2004
 112459722.0264   87630961.2714                   21400383.9954   21400375.3184
        51.8004         43.9004
 133330898.1104  103894184.9594                   25372070.2344   25372051.5644
        38.2004         39.0004
 129502815.4354  100911300.1364                   24643577.6424   24643566.5824
        39.9004         35.5004
 14 10 11 15 13  0.0000000  0 12G01G02G04G06G11G12G17G20G24G28G30G32
 123156796.5244   95966342.6504                   23435976.3804   23435963.9524
        42.7004         40.0004
 129897038.4364  101218500.6034                   24718592.3354   24718582.0634
        44.7004         37.7004
 121614183.9794   94764316.5114                   23142426.5024   23142415.7844
        44.9004         38.8004
 114526513.1804   89241463.8344                   21793675.2964   21793661.9574
        50.6004         46.4004
 133939831.0164  104368687.8784                   25487924.1794   25487910.0664
        37.3004         29.6004
 131296545.5054  102309008.8554                   24984911.9844   24984902.1654
        40.0004         37.3004
 108378332.2374   84450662.9694                   20623717.0494   20623708.8174
        55.5004         50.7004
 121220349.1934   94457453.4704                   23067467.3274   23067456.6834
        47.0004         39.6004
 120886825.9744   94197538.2524                   23004007.7734   23003995.7014
        46.2004         42.8004
 112510571.3874   87670584.0934                   21410060.3624   21410051.2864
        51.8004         44.5004
 133445697.4134  103983638.7234                   25393916.2454   25393894.4784
        37.0004         40.0004
 129527055.7194  100930188.7264                   24648191.0744   24648179.8324
        40.5004         33.8004
 14 10 11 15 13 30.0000000  0 12G01G02G04G06G11G12G17G20G24G28G30G32
 123253740.4734   96041883.3054                   23454425.6824   23454412.2934
        43.2004         40.0004
 129793576.9864  101137881.4324                   24698903.6574   24698893.6304
        45.0004         38.6004
 121713100.7574   94841394.3954                   23161251.4974   23161239.3094
        45.0004         38.8004
 114439403.6404   89173586.3154                   21777098.7764   21777085.7444
        50.9004         46.2004
 134054030.2564  104457674.2934                   25509651.0444   25509642.2094
        37.5004         30.7004
 131192708.9944  102228097.2654                   24965154.6484   24965143.1074
        40.5004         36.5004
 108391373.2144   84460824.7774                   20626198.8614   20626190.5044
        55.7004         50.7004
 121184157.2574   94429251.9064                   23060579.8974   23060569.2484
        46.9004         39.9004
 120838662.3594   94160008.1224                   22994843.3554   22994830.4184
        46.6004         43.1004
 112561768.1934   87710477.6504                   21419803.0524   21419794.5804
        52.4004         44.1004
 133560429.9194  104073040.4434                   25415749.1884   25415730.3964
        41.1004         38.5004
 129551842.0654  100949502.7534                   24652908.7374   24652896.2004
        40.0004         34.8004
 14 10 11 15 14  0.0000000  0 12G01G02G04G06G11G12G17G20G24G28G30G32
 123350934.4664   96117618.7814                   23472922.2154   23472907.0324
        43.2004         42.6004
 129690186.8824  101057317.8304                   24679228.6864   24679218.4864
        44.5004         39.6004
 121812298.5354   94918691.2144                   23180127.7434   23180116.4764
        45.3004         38.9004
 114352660.6564   89105994.4324                   21760592.6694   21760578.8244
        50.7004         46.6004
 134168250.3834  104546677.1654                   25531391.0724   25531377.3524
        36.8004         32.6004
 131088869.0574  102147182.9524                   24945391.7164   24945381.8784
        39.0004         37.7004
 108404696.9234   84471206.8854                   20628734.3114   20628725.4994
        55.3004         50.9004
 121148473.0324   94401445.9534                   23053789.0604   23053777.2034
        45.7004         40.8004
 120791027.4694   94122889.9854                   22985779.6854   22985767.6674
        46.9004         43.2004
 112613312.3614   87750641.9004                   21429611.9404   21429602.8914
        52.6004         44.6004
 133675093.5054  104162388.4154                   25437570.4374   25437549.5904
        40.5004         38.9004
 129577173.9944  100969241.9084                   24657730.2594   24657717.3654
        40.3004         33.3004
 14 10 11 15 14 30.0000000  0 12G01G02G04G06G11G12G17G20G24G28G30G32
 123448375.6484   96193546.8544                   23491464.7204   23491451.5214
        44.9004         41.2004
 129586869.5564  100976810.9074                   24659568.3834   24659557.3504
        42.3004         39.4004
 121911774.3024   94996204.7324                   23199056.2324   23199047.6244
        46.1004         36.7004
 114266286.0274   89038689.5934                   21744155.9004   21744143.0314
        51.4004         45.8004
 134282489.4734  104635694.6784                   25553123.9644   25553115.8314
        37.5004         33.1004
 130985028.1324  102066267.8664                   24925633.9524   24925619.9494
        38.9004         37.6004
 108418302.4324   84481808.5604                   20631323.2844   20631314.7554
        55.8004         50.4004
 121113298.0864   94374036.8454                   23047095.6564   23047086.1964
        47.1004         38.4004
 120743922.5974   94086184.8824                   22976816.5714   22976801.7934
        46.1004         43.9004
 112665203.8404   87791076.7644                   21439486.4594   21439477.6114
        52.7004         44.0004
 133789685.5794  104251680.6524                   25459375.1724   25459357.8674
        42.9004         35.7004
 129603050.6624  100989405.5174                   24662652.9494   24662641.2864
        39.8004         34.1004
 14 10 11 15 15  0.0000000  0 12G01G02G04G06G11G12G17G20G24G28G30G32
 123546061.2934   96269665.4254                   23510052.7064   23510038.1524
        43.0004         40.8004
 129483626.8844  100896362.1614                   24639921.3584   24639910.6714
        39.5004         39.7004
 122011525.0164   95073932.4864                   23218038.9624   23218028.5824
        44.6004         37.0004
 114180281.6224   88971673.2434                   21727789.4374   21727776.2074
        50.6004         46.1004
 134396745.7684  104724725.6194                   25574868.5174   25574858.4024
        38.1004         31.2004
 130881186.9264  101985352.6344                   24905873.4094   24905858.2174
        37.3004         39.2004
 108432189.3134   84492629.4764                   20633965.9564   20633957.4604
        55.5004         50.7004
 121078634.3734   94347026.1364                   23040498.2424   23040487.9364
        45.5004         39.4004
 120697349.7284   94049894.3244                   22967953.8794   22967940.7274
        46.5004         43.6004
 112717442.5624   87831782.2394                   21449427.2304   21449418.8724
        52.4004         44.0004
 133904203.7394  104340915.2794                   25481169.5894   25481148.6584
        41.7004         37.1004
 129629471.5484  101009993.1924                   24667682.4314   24667669.0744
        39.7004         35.2004
 14 10 11 15 15 30.0000000  0 12G01G02G04G06G11G12G17G20G24G28G30G32
 123643989.1194   96345972.7374                   23528686.5294   23528674.0934
        43.9004         39.7004
 129380460.7514  100815973.0734                   24620290.3344   24620279.6234
        41.0004         37.7004
 122111548.5854   95151872.8054                   23237074.0484   23237061.2134
        43.9004         39.1004
 114094649.7364   88904947.1614                   21711494.2874   21711480.8504
        51.0004         46.1004
 134511017.9754  104813769.0464                   25596615.0234   25596603.7224
        38.5004         30.8004
 130777347.2444  101904438.5184                   24886111.0724   24886100.5194
        38.1004         37.1004
 108446356.7524   84503669.0104                   20636661.9224   20636653.4094
        55.4004         50.7004
 121044484.1344   94320415.5054                   23034000.6044   23033991.0134
        46.5004         39.1004
 120651310.2144   94014019.3584                   22959193.0824   22959178.9054
        46.2004         44.6004
 112770028.4744   87872758.2204                   21459433.5584   21459424.7804
        52.0004         44.0004
 134018646.0204  104430090.8014                   25502947.2204   25502925.9514
        41.7004         36.5004
 129656436.1444  101031004.5144                   24672811.0064   24672797.5374
        38.1004         36.5004
 14 10 11 15 16  0.0000000  0 12G01G02G04G06G11G12G17G20G24G28G30G32
 123742156.0864   96422466.3714                   23547368.5734   23547355.8064
        45.5004         39.6004
 129277372.4444  100735644.6104                   24600673.0574   24600663.9184
        43.8004         35.2004
 122211841.6844   95230023.1444                   23256158.2474   23256147.7554
        44.8004         38.7004
 114009391.9474   88838512.5724                   21695269.8454   21695257.1684
        51.6004         45.0004
 134625303.9954  104902823.2244                   25618360.5274   25618351.4464
        38.2004         30.8004
 130673510.0964  101823526.4614                   24866354.1624   24866341.4564
        39.0004         37.5004
 108460804.5174   84514926.9824                   20639411.4444   20639402.4974
        55.8004         50.3004
 121010848.6744   94294206.0294                   23027599.5944   23027590.8024
        47.6004         38.2004
 120605805.3364   93978560.9694                   22950533.4434   22950519.9794
        47.1004         43.8004
 112822961.2114   87914004.4594                   21469506.1894   21469497.8224
        52.4004         43.5004
 134133009.8154  104519205.1584                   25524710.6044   25524690.7134
        41.6004         32.7004
 129683943.5704  101052438.8424                   24678049.2284   24678033.4904
        39.1004         35.6004
 14 10 11 15 16 30.0000000  0 12G01G02G04G06G11G12G17G20G24G28G30G32
 123840559.7174   96499144.4284                   23566095.5114   23566082.0364
        45.6004         41.6004
 129174364.2134  100655378.4684                   24581069.6724   24581060.6344
        44.9004         34.8004
 122312401.5364   95308381.3774                   23275294.1924   23275281.9334
        44.0004         39.2004
 113924510.3974   88772371.1684                   21679116.5934   21679105.0094
        51.6004         45.3004
 134739602.1154  104991886.8504                   25640114.2164   25640102.7254
        37.1004         28.2004
 130569677.4274  101742617.7954                   24846593.3894   24846583.8154
        39.5004         36.7004
 108475531.8824   84526402.8244                   20642213.9954   20642204.9454
        55.3004         50.8004
 120977730.2004   94268399.4254                   23021299.3834   23021288.8444
        47.0004         39.7004
 120560837.0754   93943520.7624                   22941976.7184   22941963.3454
        47.0004         44.4004
 112876240.7154   87955520.9004                   21479645.3174   21479637.3484
        52.4004         44.0004
 134247293.1974  104608256.9484                   25546456.6304   25546438.6434
        42.0004         31.0004
 129711993.4004  101074295.8184                   24683387.8254   24683373.9884
        40.2004         35.1004
 14 10 11 15 17  0.0000000  0 12G01G02G04G06G11G12G17G20G24G28G30G32
 123939197.4674   96576004.8554                   23584866.0614   23584850.8234
        43.7004         41.5004
 129071437.6244  100575175.9414                   24561485.5744   24561472.6514
        44.3004         37.9004
 122413225.4244   95386945.3364                   23294479.5354   23294468.8444
        42.5004         36.8004
 113840007.0744   88706524.4684                   21663036.2064   21663024.1744
        51.0004         45.5004
 134853911.1124  105080958.9904                   25661864.9274   25661855.8474
        33.5004         33.0004
 130465850.6174  101661713.7664                   24826838.1564   24826826.4854
        38.3004         38.8004
 108490538.4704   84538096.2574                   20645069.7034   20645061.4714
        55.6004         50.7004
 120945130.4454   94242997.0574                   23015094.9564   23015085.6244
        46.9004         40.1004
 120516406.1674   93908899.2604                   22933522.0764   22933507.2474
        46.3004         44.5004
 112929866.8974   87997307.4874                   21489849.8364   21489841.3674
        51.8004         43.8004
 134361493.6854  104697244.1664                   25568188.2154   25568168.8164
        39.1004         34.2004
 129740584.8954  101096574.8474                   24688827.2414   24688814.7484
        40.0004         35.0004
 14 10 11 15 17 30.0000000  0 12G01G02G04G06G11G12G17G20G24G28G30G32
 124038066.6184   96653045.6174                   23603678.9614   23603665.5944
        44.4004         39.1004
 128968594.3234  100495038.3954                   24541914.7454   24541903.2494
        45.3004         39.0004
 122514310.5844   95465712.9164                   23313715.8634   23313706.4694
        43.9004         36.2004
 113755883.7704   88640973.9154                   21647028.5684   21647014.9254
        50.6004         46.0004
 134968229.4334  105170038.3164                   25683622.4174   25683608.4834
        33.0004         31.5004
 130362030.3224  101580814.7824                   24807079.5284   24807068.0214
        38.6004         35.6004
 108505823.6274   84550006.7594                   20647978.4294   20647969.5394
        55.4004         50.8004
 120913051.2044   94218000.2974                   23008990.5174   23008980.0004
        46.7004         40.8004
 120472515.0684   93874698.3614                   22925168.8044   22925155.1124
        46.4004         44.2004
 112983839.6374   88039364.1294                   21500120.7634   21500112.3634
        52.1004         43.8004
 134475609.1414  104786165.1494                   25589901.6804   25589886.5024
        38.1004         34.5004
 129769717.2404  101119275.3064                   24694369.5524   24694356.8114
        39.7004         36.3004
 14 10 11 15 18  0.0000000  0 11G01G02G04G06G12G17G20G24G28G30G32
 124137164.7794   96730264.8824                   23622536.6714   23622524.6674
        45.3004         38.2004
 128865836.3354  100414967.3664                   24522361.0914   24522349.0294
        44.5004         40.9004
 122615654.5744   95544682.1924                   23333003.2704   23332991.7264
        44.5004         38.3004
 113672142.6764   88575721.1804                   21631093.6554   21631080.5604
        51.6004         45.9004
 130258218.5904  101499922.4734                   24787325.8354   24787313.0174
        38.8004         37.2004
 108521386.6874   84562133.7914                   20650940.1504   20650931.1784
        55.4004         50.6004
 120881494.4664   94193410.6834                   23002986.3114   23002974.7284
        46.7004         40.7004
 120429164.9944   93840919.0484                   22916919.4934   22916906.1704
        46.6004         43.8004
 113038158.9074   88081690.7884                   21510457.4504   21510448.7294
        51.9004         43.8004
 134589637.5634  104875018.4034                   25611603.2024   25611584.1654
        38.3004         35.7004
 129799390.0494  101142396.8914                   24700017.5064   24700002.5104
        39.0004         36.0004
 14 10 11 15 18 30.0000000  0 11G01G02G04G06G12G17G20G24G28G30G32
 124236489.3554   96807660.5484                   23641437.3704   23641424.6244
        44.0004         39.1004
 128763165.4144  100334964.2244                   24502823.0484   24502810.8984
        41.7004         41.0004
 122717254.4564   95623850.8164                   23352336.1404   23352320.5914
        41.4004         39.8004
 113588785.6774   88510767.7484                   21615231.3684   21615218.5414
        51.6004         46.4004
 130154418.0364  101419038.8914                   24767574.5414   24767562.7494
        39.4004         37.9004
 108537227.3124   84574477.1134                   20653954.5544   20653945.8244
        55.4004         50.7004
 120850461.9434   94169229.5904                   22997080.4984   22997069.0104
        46.1004         41.0004
 120386357.1104   93807562.2264                   22908773.4454   22908759.6954
        46.8004         44.2004
 113092824.3484   88124287.1704                   21520860.0554   21520851.0034
        51.0004         43.7004
 134703576.8664  104963802.2684                   25633286.3014   25633264.6474
        36.7004         36.3004
 129829602.4984  101165938.9784                   24705764.9424   24705751.8764
        38.7004         36.2004
 14 10 11 15 19  0.0000000  0 11G01G02G04G06G12G17G20G24G28G30G32
 124336037.3804   96885230.3034                   23660381.9084   23660368.4044
        43.8004         40.3004
 128660582.8834  100255030.0024                   24483301.8514   24483288.0294
        39.2004         41.6004
 122819107.3274   95703216.5354                   23371718.5484   23371703.4984
        40.8004         39.3004
 113505814.3404   88446114.8204                   21599441.9594   21599428.8414
        51.6004         46.5004
 130050628.5254  101338163.9154                   24747822.6354   24747814.4764
        41.8004         35.2004
 108553344.6134   84587036.0364                   20657021.4324   20657012.5394
        55.3004         50.7004
 120819954.7804   94145457.8864                   22991275.6544   22991264.1464
        46.7004         41.0004
 120344092.8564   93774629.0054                   22900730.2304   22900717.9354
        47.5004         43.6004
 113147835.7604   88167153.1614                   21531328.6264   21531319.3284
        51.8004         43.9004
 134817424.4204  105052514.7034                   25654948.7934   25654932.1234
        38.2004         35.6004
 129860353.5214  101189900.7784                   24711618.0024   24711601.4824
        38.6004         35.6004
 14 10 11 15 19 30.0000000  0 11G01G02G04G06G12G17G20G24G28G30G32
 124435806.6324   96962972.4074                   23679366.9334   23679354.2924
        44.3004         39.8004
 128558090.6364  100175166.0764                   24463796.8274   24463784.8264
        42.7004         39.6004
 122921210.4584   95782777.3474                   23391146.4524   23391136.5704
        44.1004         35.6004
 113423230.8944   88381764.1394                   21583726.8414   21583713.1904
        51.3004         46.7004
 129946852.7294  101257299.5994                   24728074.5524   24728064.0614
        39.9004         36.8004
 108569738.1824   84599810.2414                   20660140.9094   20660131.8754
        55.3004         50.6004
 120789975.3574   94122097.4054                   22985569.9064   22985559.0454
        46.6004         41.0004
 120302374.0324   93742120.7804                   22892791.0984   22892779.1844
        47.4004         43.1004
 113203193.1784   88210288.7704                   21541862.8134   21541853.7594
        52.0004         44.0004
 134931178.1934  105141154.0864                   25676600.3954   25676576.7244
        36.1004         36.5004
 129891642.5824  101214281.7854                   24717570.4374   24717560.2174
        40.9004         33.7004
 14 10 11 15 20  0.0000000  0 11G01G02G04G06G12G17G20G24G28G30G32
 124535794.2884   97040884.7574                   23698393.5624   23698380.1604
        43.5004         39.2004
 128455690.2584  100095373.7074                   24444311.7014   24444300.5324
        45.7004         37.6004
 123023561.1204   95862531.0444                   23410624.6814   23410613.6234
        44.7004         36.5004
 113341037.0424   88317717.0614                   21568085.8354   21568071.9524
        51.2004         47.2004
 129843091.4544  101176446.5914                   24708327.3324   24708320.9584
        43.1004         35.2004
 108586407.5344   84612799.3264                   20663313.2454   20663304.2594
        55.0004         50.9004
 120760525.2724   94099149.4164                   22979965.5724   22979956.0654
        47.5004         40.7004
 120261201.3844   93710038.1584                   22884956.2124   22884944.1684
        47.3004         43.3004
 113258896.0874   88253693.5664                   21552462.9604   21552453.7044
        51.7004         44.4004
 135044835.8594  105229718.6324                   25698222.4244   25698202.5164
        31.2004         35.4004
 129923468.8054  101239081.3434                   24723625.6024   24723616.8634
        40.7004         34.7004
 14 10 11 15 20 30.0000000  0 11G01G02G04G06G12G17G20G24G28G30G32
 124635997.8794   97118965.3834                   23717462.0784   23717448.3274
        41.7004         38.0004
 128353383.7604  100015654.4564                   24424843.6414   24424832.2584
        46.8004         36.5004
 123126156.5184   95942475.4134                   23430148.4524   23430137.3354
        44.1004         37.6004
 113259234.7374   88253975.0684                   21552519.1454   21552505.9694
        51.4004         46.9004
 129739345.5514  101095605.6464                   24688588.8044   24688574.4934
        37.2004         40.7004
 108603352.3234   84626003.0284                   20666537.8204   20666528.5364
        55.0004         50.7004
 120731605.8734   94076614.9334                   22974462.6314   22974451.2414
        46.7004         40.9004
 120220577.0934   93678382.8414                   22877225.1004   22877213.2764
