     2.11           OBSERVATION DATA    G (GPS)             RINEX VERSION / TYPE
teqc  2013Nov15     NGS Web User        20150421 18:50:38UTCPGM / RUN BY / DATE
Solaris 5.10|UltraSparc IIIi|cc -m64 SS12.1|=+|*Sparc       COMMENT
teqc  2012Jun6      NOAA/NOS/NGS/CORS   20121011 00:43:04UTCCOMMENT
Solaris x86 5.10|AMD64|cc SC5.8 -xarch=amd64|=+|=+          COMMENT
teqc  2012Jun6      NOAA/NOS/NGS/CORS   20121011 00:42:49UTCCOMMENT
     2.10           OBSERVATION DATA    G (GPS)             COMMENT
NSTB2RINEX 2.06     NOAA/NOS/NGS/CORS   20121011 00:42:27UTCCOMMENT
Forced Modulo Decimation to 30 seconds                      COMMENT
ZMP1                                                        MARKER NAME
Tom McHugh          Federal Aviation Administration         OBSERVER / AGENCY
7BC1                NOV WAASGII         2.003               REC # / TYPE / VERS
unknown             MPL_WAAS_2225NW NONE                    ANT # / TYPE
  -249977.5300 -4539298.5130  4458954.8020                  APPROX POSITION XYZ
        0.0000        0.0000        0.0000                  ANTENNA: DELTA H/E/N
     1     1                                                WAVELENGTH FACT L1/2
     7    L1    L2    P1    P2    C1    S1    S2            # / TYPES OF OBSERV
    30.0000                                                 INTERVAL
teqc windowed: start @ 2012 Oct 10 15:00:00.000             COMMENT
teqc windowed:  end  @ 2012 Oct 10 16:00:00.000             COMMENT
teqc edited: all GLONASS satellites excluded                COMMENT
  2012    10    10    15     0    0.0000000     GPS         TIME OF FIRST OBS
                                                            END OF HEADER
 12 10 10 15  0  0.0000000  0  9G01G07G08G11G15G17G19G26G28
 113319555.0314   88300974.5364                   21563996.4814   21563985.3284
        50.6004         46.9004
 117489803.4764   91550519.7314                   22357574.5604   22357567.4344
        49.2004         43.7004
 106166303.1454   82727004.5204                   20202783.9654   20202776.3224
        55.7004         47.8004
 112384614.5404   87572449.0414                   21386086.7384   21386079.7404
        52.2004         44.6004
 128282050.6184   99960049.4954                   24411271.4154   24411263.6644
        43.0004         38.2004
 116732504.9434   90960426.4884                   22213458.4284   22213452.4354
        51.7004         44.8004
 128063108.5384   99789440.7014                   24369609.9734   24369602.3874
        41.7004         37.3004
 119731911.8404   93297606.6694                   22784235.1194   22784225.6304
        47.3004         41.3004
 110670147.9064   86236506.2824                   21059832.8984   21059826.0964
        53.2004         47.5004
 12 10 10 15  0 30.0000000  0  9G01G07G08G11G15G17G19G26G28
 113290492.1394   88278328.1344                   21558466.2094   21558455.7594
        51.2004         46.7004
 117589925.5344   91628536.8624                   22376626.9224   22376620.6284
        50.1004         42.7004
 106196015.6034   82750157.0704                   20208438.0534   20208430.5614
        55.9004         47.8004
 112412805.7314   87594416.1944                   21391451.1674   21391444.7794
        52.8004         44.2004
 128263731.7114   99945774.9904                   24407785.8984   24407776.9214
        42.5004         38.6004
 116654129.5474   90899354.7714                   22198544.1464   22198536.6964
        50.9004         45.0004
 128170027.0854   99872753.7694                   24389955.5984   24389948.5534
        42.4004         38.4004
 119777045.5274   93332775.7484                   22792822.3524   22792815.2934
        47.7004         40.5004
 110637991.3204   86211449.2014                   21053713.2414   21053706.8294
        53.7004         47.0004
 12 10 10 15  1  0.0000000  0  9G01G07G08G11G15G17G19G26G28
 113262014.9154   88256138.0904                   21553047.2364   21553036.8274
        51.5004         46.9004
 117690351.6504   91706790.9034                   22395737.8764   22395730.3604
        50.3004         42.9004
 106226323.1474   82773773.3284                   20214205.8904   20214198.4704
        56.1004         48.0004
 112441605.7304   87616857.7634                   21396931.4784   21396925.3534
        52.7004         43.8004
 128245947.0554   99931916.8064                   24404401.9674   24404395.5154
        44.2004         38.5004
 116576047.7294   90838511.8254                   22183685.8244   22183677.6174
        50.3004         45.7004
 128277002.4794   99956111.1494                   24410313.8064   24410303.6994
        40.6004         40.3004
 119822753.4454   93368392.3064                   22801520.4184   22801513.7274
        48.1004         40.1004
 110606033.6914   86186547.1534                   21047631.9824   21047625.1954
        53.7004         46.9004
 12 10 10 15  1 30.0000000  0  9G01G07G08G11G15G17G19G26G28
 113234125.0354   88234405.7274                   21547739.9034   21547729.1454
        51.0004         47.4004
 117791079.8594   91785280.3474                   22414906.0004   22414899.1414
        49.6004         43.2004
 106257225.8054   82797853.3024                   20220086.4914   20220078.7144
        55.6004         48.2004
 112471013.9094   87639773.2284                   21402527.8584   21402520.5234
        51.5004         44.3004
 128228697.6644   99918475.7224                   24401119.8524   24401113.4964
        44.5004         38.6004
 116498260.4634   90777898.4084                   22168883.1304   22168875.0284
        50.2004         45.6004
 128384033.4794  100039511.8324                   24430679.0574   24430672.7104
        41.6004         38.9004
 119869033.6384   93404454.7784                   22810327.3744   22810319.0364
        47.0004         41.2004
 110574275.9464   86161800.8524                   21041588.4574   21041582.8454
        53.6004         46.7004
 12 10 10 15  2  0.0000000  0  9G01G07G08G11G15G17G19G26G28
 113206823.4174   88213131.7404                   21542544.7564   21542533.4024
        51.3004         47.3004
 117892107.9584   91864003.4944                   22434131.8814   22434122.2444
        48.2004         45.2004
 106288723.2614   82822396.7674                   20226080.3014   20226072.0894
        55.7004         48.4004
 112501029.0624   87663161.6604                   21408239.3794   21408231.8634
        51.7004         44.6004
 128211983.3944   99905451.6174                   24397939.2754   24397931.5754
        43.8004         40.0004
 116420768.8384   90717515.3294                   22154136.9484   22154129.4944
        50.8004         44.7004
 128491117.5964  100122953.9064                   24451056.5764   24451048.8594
        40.0004         36.6004
 119915883.5194   93440961.1674                   22819242.8784   22819233.9984
        47.1004         41.2004
 110542718.6124   86137210.7144                   21035583.6944   21035577.4404
        54.0004         47.2004
 12 10 10 15  2 30.0000000  0  9G01G07G08G11G15G17G19G26G28
 113180111.4294   88192317.2004                   21537460.9554   21537450.6404
        50.7004         47.2004
 117993433.8794   91942958.6844                   22453413.9984   22453404.3464
        48.7004         44.3004
 106320815.2594   82847403.5034                   20232186.8864   20232179.0564
        55.4004         48.4004
 112531649.8794   87687022.0454                   21414066.0924   21414058.8264
        51.6004         44.1004
 128195804.4704   99892844.6934                   24394862.4194   24394854.0874
        43.9004         40.1004
 116343573.5784   90657363.1974                   22139446.9874   22139439.2674
        50.1004         45.3004
 128598253.0264  100206436.0364                   24471444.3904   24471433.7184
        37.7004         40.7004
 119963300.6494   93477909.5494                   22828267.0194   22828256.9944
        46.8004         42.0004
 110511362.0754   86112777.0454                   21029617.1684   21029611.3844
        54.3004         46.9004
 12 10 10 15  3  0.0000000  0  9G01G07G08G11G15G17G19G26G28
 113153990.0734   88171962.8944                   21532490.9004   21532480.3844
        51.8004         47.5004
 118095055.1594   92022144.0254                   22472751.0964   22472743.1034
        49.4004         43.3004
 106353501.4324   82872873.2344                   20238406.9184   20238399.6204
        55.7004         48.0004
 112562875.0584   87711353.3594                   21420008.5444   21420000.7474
        51.0004         44.4004
 128180160.9124   99880654.9274                   24391886.2214   24391874.6664
        42.4004         41.2004
 116266675.6564   90597442.7544                   22124813.8084   22124806.4014
        50.5004         45.3004
 128705437.7134  100289956.4574                   24491838.5274   24491831.0384
        38.7004         37.9004
 120011282.6374   93515298.0814                   22837397.6694   22837388.5554
        47.5004         41.8004
 110480206.9444   86088500.3134                   21023688.8824   21023682.2554
        53.8004         47.3004
 12 10 10 15  3 30.0000000  0  9G01G07G08G11G15G17G19G26G28
 113128460.4284   88152069.6704                   21527632.0194   21527621.7584
        51.8004         47.0004
 118196969.4074   92101557.6704                   22492144.9384   22492137.5584
        49.6004         42.2004
 106386781.3494   82898805.6224                   20244740.3284   20244732.6294
        56.2004         48.0004
 112594703.9134   87736155.0604                   21426065.4394   21426057.4354
        50.9004         44.3004
 128165053.1524   99868882.6744                   24389010.2474   24389001.0974
        43.3004         39.6004
 116190076.4914   90537755.1054                   22110237.6784   22110229.0634
        50.3004         45.4004
 128812669.4364  100373513.6194                   24512246.0174   24512239.2004
        40.8004         38.0004
 120059826.9104   93553124.7694                   22846635.6134   22846625.7034
        47.7004         41.6004
 110449253.7184   86064380.9224                   21017798.7124   21017791.5634
        53.3004         47.2004
 12 10 10 15  4  0.0000000  0  9G01G07G08G11G15G17G19G26G28
 113103523.9284   88132638.6244                   21522887.1304   21522875.9644
        50.7004         47.6004
 118299175.0214   92181198.3334                   22511593.5424   22511586.0884
        49.8004         41.6004
 106420654.8604   82925200.5484                   20251185.9004   20251178.2754
        55.5004         47.9004
 112627135.0944   87761426.0944                   21432236.6544   21432229.0284
        51.6004         44.0004
 128150481.4824   99857528.1504                   24386238.2994   24386224.9804
        40.4004         41.9004
 116113776.4404   90478300.5334                   22095717.7804   22095710.9664
        50.4004         45.0004
 128919946.9034  100457106.3534                   24532657.8764   24532654.0594
        39.8004         35.8004
 120108931.3434   93591387.9454                   22855979.8774   22855971.1064
        47.9004         41.5004
 110418503.4184   86040419.6504                   21011946.8704   21011939.9884
        53.7004         46.7004
 12 10 10 15  4 30.0000000  0  9G01G07G08G11G15G17G19G26G28
 113079181.4654   88113670.4694                   21518254.9874   21518244.2354
        50.8004         47.5004
 118401669.4204   92261064.0364                   22531097.6864   22531089.9314
        49.3004         43.0004
 106455121.7184   82952057.8274                   20257744.5144   20257736.7404
        55.3004         47.8004
 112660167.1094   87787165.3264                   21438523.1724   21438515.5534
        51.6004         44.5004
 128136445.9174   99846591.2674                   24383565.6154   24383559.0634
        42.9004         38.8004
 116037776.4574   90419079.7914                   22081255.3834   22081248.3844
        50.4004         45.0004
 129027268.0774  100540733.2414                   24553080.5864   24553077.1944
        39.5004         37.0004
 120158593.2174   93630085.4874                   22865429.1804   22865421.3374
        47.9004         41.0004
 110387956.4244   86016616.8054                   21006133.8254   21006126.5354
        53.1004         47.7004
 12 10 10 15  5  0.0000000  0  9G01G07G08G11G15G17G19G26G28
 113055434.2194   88095166.1274                   21513736.0614   21513725.4724
        51.0004         47.6004
 118504450.3414   92341153.0004                   22550657.1594   22550648.8744
        49.8004         43.5004
 106490181.5594   82979377.1724                   20264416.5474   20264408.7784
        55.9004         48.2004
 112693798.9484   87813371.9544                   21444922.5024   21444915.6664
        52.0004         43.9004
 128122946.5104   99836072.2634                   24380998.6164   24380987.3054
        41.9004         40.9004
 115962077.8574   90360093.8844                   22066850.8224   22066843.5984
        50.9004         45.6004
 129134631.1124  100624392.5834                   24573512.8364   24573505.7084
        40.0004         38.8004
 120208810.1734   93669215.5664                   22874985.1244   22874977.7294
        48.7004         40.6004
 110357613.4124   85992972.9024                   21000359.4404   21000352.8344
        53.7004         47.1004
 12 10 10 15  5 30.0000000  0  9G01G07G08G11G15G17G19G26G28
 113032283.4744   88077126.5974                   21509330.8434   21509319.7794
        50.9004         47.6004
 118607515.9744   92421463.8324                   22570270.3754   22570261.4684
        49.3004         44.2004
 106525834.1624   83007158.4024                   20271201.2664   20271193.1114
        55.7004         47.9004
 112728029.4404   87840045.0554                   21451436.1024   21451428.9644
        51.4004         44.0004
 128109983.5864   99825971.2254                   24378530.8204   24378519.5714
        41.5004         40.7004
 115886681.4544   90301343.4524                   22052503.3514   22052495.6484
        50.6004         45.7004
 129242034.2974  100708083.3434                   24593948.8834   24593945.0504
        38.9004         35.7004
 120259579.9584   93708776.4134                   22884647.1994   22884638.0114
        48.1004         41.5004
 110327475.0414   85969488.4474                   20994623.7184   20994618.0574
        53.6004         47.1004
 12 10 10 15  6  0.0000000  0  9G01G07G08G11G15G17G19G26G28
 113009729.8904   88059552.3854                   21505038.9094   21505027.6984
        51.0004         47.5004
 118710863.6974   92501994.4574                   22589936.5234   22589927.6224
        49.4004         44.2004
 106562078.8474   83035401.0014                   20278098.2394   20278090.5604
        56.0004         47.6004
 112762856.9934   87867183.4014                   21458063.2144   21458055.8934
        51.3004         44.0004
 128097556.8464   99816288.0764                   24376165.7244   24376155.0974
        42.4004         40.0004
 115811587.7964   90242828.9214                   22038213.8354   22038206.2164
        50.8004         45.7004
 129349475.3474  100791803.5704                   24614398.8314   24614392.3844
        41.6004         38.8004
 120310899.6374   93748765.7454                   22894413.8884   22894404.1824
        48.3004         42.3004
 110297541.9054   85946163.9244                   20988927.4564   20988922.3474
        53.8004         47.3004
 12 10 10 15  6 30.0000000  0  9G01G07G08G11G15G17G19G26G28
 112987774.3754   88042444.1994                   21500861.3514   21500849.3144
        50.4004         48.3004
 118814491.0174   92582742.9494                   22609656.0264   22609647.2844
        49.3004         43.6004
 106598914.7714   83064104.3054                   20285107.4844   20285100.0584
        55.6004         47.6004
 112798280.1274   87894785.8364                   21464803.2684   21464798.2754
        51.9004         43.0004
 128085666.2484   99807022.6984                   24373902.3774   24373891.2724
        41.7004         41.0004
 115736797.4724   90184550.7654                   22023982.3264   22023973.9734
        50.8004         46.5004
 129456952.2204  100875551.6834                   24634850.1984   24634843.6954
        39.7004         39.8004
 120362766.5944   93789181.5264                   22904284.3994   22904273.7984
        47.9004         42.8004
 110267814.4084   85922999.6344                   20983270.9884   20983265.5354
        53.9004         47.0004
 12 10 10 15  7  0.0000000  0  9G01G07G08G11G15G17G19G26G28
 112966418.1064   88025802.9554                   21496797.3134   21496786.3254
        51.4004         47.6004
 118918396.3834   92663708.0964                   22629428.1004   22629420.3414
        49.6004         43.2004
 106636341.9934   83093268.3704                   20292229.1834   20292221.6554
        55.6004         47.1004
 112834297.7934   87922851.5474                   21471657.8334   21471652.1724
        51.8004         42.9004
 128074311.7494   99798175.0504                   24371742.3944   24371733.0314
        44.1004         39.6004
 115662311.8974   90126510.0864                   22009808.1404   22009800.0164
        51.2004         46.0004
 129564463.6434  100959326.7504                   24655307.0074   24655299.4824
        39.7004         38.1004
 120415178.4224   93830021.8684                   22914258.1264   22914247.8714
        48.2004         42.8004
 110238293.2324   85899996.1194                   20977653.5304   20977647.2374
        53.8004         47.0004
 12 10 10 15  7 30.0000000  0  9G01G07G08G11G15G17G19G26G28
 112945662.1764   88009629.5184                   21492847.5444   21492835.9834
        51.2004         47.7004
 119022576.9314   92744887.6734                   22649252.9264   22649244.7864
        49.2004         44.5004
 106674360.0774   83122892.8404                   20299464.3484   20299456.6644
        55.7004         47.2004
 112870908.7744   87951379.5714                   21478625.8184   21478617.8444
        51.1004         44.2004
 128063494.1344   99789745.7194                   24369683.0194   24369674.8364
        44.1004         38.8004
 115588131.9034   90068707.5184                   21995691.9494   21995683.3074
        50.8004         45.9004
 129672007.7094  101043127.2654                   24675775.8144   24675766.7484
        41.2004         40.6004
 120468132.7034   93871284.9004                   22924334.1024   22924324.3454
        47.9004         42.0004
 110208979.3274   85877154.1104                   20972076.0334   20972069.2924
        53.6004         47.9004
 12 10 10 15  8  0.0000000  0  9G01G07G08G11G15G17G19G26G28
 112925507.1614   87993924.3154                   21489012.0714   21489001.2804
        51.1004         47.5004
 119127030.2074   92826279.7454                   22669130.6884   22669120.9684
        49.3004         44.8004
 106712968.1884   83152977.0664                   20306811.2294   20306803.6794
        55.4004         47.4004
 112908111.3374   87980368.5684                   21485704.8194   21485697.6284
        51.5004         43.3004
 128053212.6624   99781734.1524                   24367727.0714   24367718.2924
        43.6004         38.6004
 115514257.9744   90011143.4344                   21981633.8684   21981625.2374
        50.7004         46.4004
 129779582.3644  101126951.5124                   24696247.0444   24696236.5204
        41.3004         39.1004
 120521626.4634   93912968.3264                   22934512.9524   22934503.9114
        47.7004         41.8004
 110179872.8224   85854473.7244                   20966537.2654   20966529.8964
        53.4004         47.5004
 12 10 10 15  8 30.0000000  0  9G01G07G08G11G15G17G19G26G28
 112905954.2524   87978688.2904                   21485291.1434   21485280.1914
        50.9004         47.3004
 119231754.2124   92907882.7854                   22689059.2804   22689050.9954
        50.6004         44.6004
 106752165.7034   83183520.5744                   20314270.8964   20314262.4394
        55.2004         47.7004
 112945904.2964   88009817.6054                   21492896.3534   21492889.8544
        51.7004         42.7004
 128043467.6204   99774140.6184                   24365871.8124   24365865.3914
        44.7004         37.8004
 115440691.4164   89953818.8454                   21967634.6424   21967626.9844
        51.3004         46.1004
 129887185.4624  101210798.1234                   24716720.4484   24716713.2834
        40.0004         38.2004
 120575657.3294   93955070.2924                   22944794.1344   22944786.4564
        47.9004         40.7004
 110150974.8624   85831955.8334                   20961037.9554   20961030.2134
        53.2004         47.5004
 12 10 10 15  9  0.0000000  0  9G01G07G08G11G15G17G19G26G28
 112887004.1204   87963921.9644                   21481685.0104   21481674.7864
        51.0004         47.4004
 119336746.7264   92989695.0684                   22709039.0294   22709030.7634
        50.6004         44.7004
 106791952.4324   83214523.2064                   20321841.5544   20321833.8834
        55.2004         47.6004
 112984285.9184   88039725.3564                   21500200.1914   21500194.3234
        51.8004         42.8004
 128034258.6984   99766964.8264                   24364119.1544   24364112.5194
        44.5004         38.3004
 115367432.7654   89896734.1954                   21953693.5854   21953685.7264
        50.9004         46.6004
 129994815.8004  101294665.7794                   24737202.7924   24737194.0444
        40.3004         39.9004
 120630222.5164   93997588.5924                   22955177.8384   22955168.7384
        46.6004         41.5004
 110122285.7994   85809600.7204                   20955578.3334   20955571.1464
        53.3004         47.8004
 12 10 10 15  9 30.0000000  0  9G01G07G08G11G15G17G19G26G28
 112868657.8054   87949626.1414                   21478193.4594   21478182.8864
        51.2004         47.0004
 119442005.6534   93071714.9194                   22729068.7554   22729060.2164
        50.3004         44.4004
 106832327.5494   83245984.3174                   20329524.8234   20329516.7604
        55.5004         47.4004
 113023255.0244   88070090.8754                   21507615.5204   21507608.6834
        51.5004         43.0004
 128025585.9924   99760206.8594                   24362469.2054   24362462.7334
        45.3004         38.7004
 115294482.7654   89839890.0554                   21939811.6124   21939805.5684
        52.3004         45.9004
 130102471.6764  101378553.3894                   24757689.8814   24757683.1294
        41.8004         38.0004
 120685319.5364   94040521.2954                   22965662.5464   22965654.1524
        47.7004         40.5004
 110093806.2514   85787408.8594                   20950158.9204   20950152.6124
        54.0004         47.5004
 12 10 10 15 10  0.0000000  0  9G01G07G08G11G15G17G19G26G28
 112850916.1564   87935801.4814                   21474818.2944   21474806.2564
        50.8004         47.6004
 119547528.5694   93153940.4814                   22749148.6604   22749139.4884
        49.2004         43.9004
 106873290.6624   83277903.6094                   20337319.5914   20337311.8954
        55.4004         47.1004
 113062810.3154   88100913.1594                   21515142.2714   21515136.4044
        51.4004         42.7004
 128017449.5284   99753866.7384                   24360921.7284   24360913.2244
        45.0004         39.3004
 115221842.4684   89783287.2534                   21925988.6154   21925981.2814
        51.6004         46.3004
 130210151.5324  101462459.6944                   24778179.5534   24778171.8214
        39.9004         38.6004
 120740945.7144   94083866.3274                   22976247.5124   22976239.0044
        47.3004         41.2004
 110065537.2684   85765381.0774                   20944779.5364   20944773.2254
        53.9004         47.6004
 12 10 10 15 10 30.0000000  0  9G01G07G08G11G15G17G19G26G28
 112833779.7724   87922448.4664                   21471557.2574   21471545.9094
        50.9004         47.0004
 119653312.8904   93236369.7364                   22769278.4734   22769270.3374
        49.2004         42.9004
 106914840.8244   83310280.3444                   20345226.4644   20345218.5284
        55.4004         47.0004
 113102949.9734   88132190.7974                   21522781.0114   21522774.3094
        50.7004         42.8004
 128009848.7834   99747944.0554                   24359475.0074   24359468.0754
        45.7004         38.6004
 115149512.6224   89726926.3424                   21912224.8344   21912216.9904
        51.4004         46.7004
 130317852.3774  101546382.3424                   24798674.6674   24798669.1734
        42.3004         38.2004
 120797098.1204   94127621.4204                   22986933.1864   22986925.2634
        48.0004         41.0004
 110037479.1474   85743517.6054                   20939440.1524   20939434.0514
        53.8004         47.3004
 12 10 10 15 11  0.0000000  0  9G01G07G08G11G15G17G19G26G28
 112817249.5534   87909567.7954                   21468411.2954   21468400.5054
        50.9004         46.7004
 119759356.7404   93319001.2264                   22789457.7594   22789449.4704
        49.3004         41.7004
 106956977.4454   83343114.0564                   20353245.0134   20353237.1654
        55.6004         46.8004
 113143672.5904   88163922.6974                   21530530.1634   21530523.3864
        51.1004         42.3004
 128002783.9804   99742439.0304                   24358129.9204   24358121.3504
        44.2004         38.8004
 115077494.2474   89670808.1674                   21898519.8684   21898511.4664
        50.7004         47.0004
 130425573.2474  101630320.5884                   24819171.5514   24819164.9164
        40.0004         35.7004
 120853774.1634   94171784.5394                   22997718.3414   22997709.7154
        47.4004         41.4004
 110009632.7354   85721819.1054                   20934141.1474   20934135.3354
        54.3004         47.0004
 12 10 10 15 11 30.0000000  0  9G01G07G08G11G15G17G19G26G28
 112801326.0414   87897159.8714                   21465381.4714   21465369.9804
        50.5004         47.5004
 119865657.8274   93401833.1494                   22809687.1624   22809679.4764
        49.5004         42.4004
 106999700.0304   83376404.3664                   20361374.7604   20361367.1364
        55.6004         47.0004
 113184976.4844   88196107.5334                   21538389.7064   21538383.7674
        51.0004         43.0004
 127996254.4754   99737351.1204                   24356888.1094   24356879.3714
        44.6004         38.2004
 115005787.5934   89614932.8704                   21884874.3224   21884866.6724
        51.2004         47.1004
 130533312.2034  101714272.9574                   24839675.8854   24839668.1634
        40.6004         39.5004
 120910971.0174   94216353.4794                   23008602.6004   23008592.1094
        46.0004         42.3004
 109981998.4824   85700285.9154                   20928882.4714   20928876.1194
        53.5004         47.8004
 12 10 10 15 12  0.0000000  0  9G01G07G08G11G15G17G19G26G28
 112786010.1974   87885225.4534                   21462466.1464   21462456.1604
        51.0004         46.8004
 119972213.4154   93484863.3784                   22829963.8234   22829956.1084
        49.4004         42.2004
 107043007.5694   83410150.4924                   20369615.9414   20369608.1954
        55.5004         46.9004
 113226860.2634   88228744.2374                   21546360.2294   21546354.5664
        51.4004         42.9004
 127990260.3474   99732680.3804                   24355747.3304   24355738.2564
        44.3004         38.6004
 114934393.8014   89559301.3694                   21871288.5824   21871280.7424
        51.0004         47.1004
 130641067.7094  101798238.1154                   24860181.9844   24860172.5064
        40.7004         38.1004
 120968686.0424   94261326.1824                   23019585.2904   23019576.7314
        46.7004         41.3004
 109954577.3474   85678918.7914                   20923664.2594   20923657.6674
        53.4004         47.7004
 12 10 10 15 12 30.0000000  0  9G01G07G08G11G15G17G19G26G28
 112771302.7844   87873765.1474                   21459667.4994   21459657.0904
        51.6004         47.3004
 120079021.4354   93568090.3034                   22850288.3274   22850280.9194
        49.8004         41.5004
 107086899.4264   83444351.9294                   20377967.8784   20377960.6664
        55.9004         46.8004
 113269322.4234   88261831.6194                   21554441.4054   21554434.6334
        51.6004         43.0004
 127984801.5304   99728426.7584                   24354707.6974   24354699.5114
        44.8004         39.4004
 114863313.5444   89503914.1794                   21857762.4984   21857754.9904
        51.9004         46.8004
 130748838.1124  101882215.0614                   24880687.3524   24880680.2624
        40.0004         37.7004
 121026916.5534   94306700.5724                   23030666.1864   23030656.2124
        46.1004         41.8004
 109927370.0274   85657718.2784                   20918487.1784   20918480.3834
        53.7004         47.7004
 12 10 10 15 13  0.0000000  0  9G01G07G08G11G15G17G19G26G28
 112757204.0584   87862779.1244                   21456984.8424   21456974.4334
        51.9004         47.6004
 120186079.2274   93651511.8844                   22870661.5734   22870653.7594
        49.5004         41.6004
 107131374.9874   83479008.2014                   20386431.2114   20386423.4644
        55.3004         47.0004
 113312361.0084   88295368.1544                   21562630.8554   21562623.7164
        50.5004         43.5004
 127979877.4614   99724589.8214                   24353771.5634   24353762.4984
        44.5004         39.4004
 114792547.3014   89448771.6774                   21844296.2834   21844289.1154
        51.9004         46.5004
 130856621.0724  101966201.6634                   24901199.3114   24901193.0704
        41.4004         38.5004
 121085659.4324   94352474.2064                   23041844.6084   23041836.5904
        47.0004         40.6004
 109900376.6404   85636684.4704                   20913350.8074   20913343.2314
        53.0004         48.2004
 12 10 10 15 13 30.0000000  0  9G01G07G08G11G15G17G19G26G28
 112743714.6604   87852267.9074                   21454417.7694   21454407.1464
        51.7004         47.1004
 120293384.6734   93735126.4294                   22891081.0314   22891072.3864
        49.3004         41.3004
 107176433.1184   83514118.4264                   20395005.7214   20394998.0294
        55.5004         46.8004
 113355974.3104   88329352.5194                   21570930.2124   21570922.7844
        50.6004         43.1004
 127975487.3424   99721168.9284                   24352936.5604   24352928.1604
        44.7004         39.0004
 114722096.1894   89393874.7304                   21830890.0184   21830882.4964
        52.0004         46.3004
 130964415.1024  102050196.9514                   24921710.9784   24921705.4974
        41.3004         37.0004
 121144911.8384   94398644.8794                   23053120.2104   23053111.7384
        47.2004         40.8004
 109873597.9814   85615817.9864                   20908254.8914   20908247.7914
        53.5004         47.5004
 12 10 10 15 14  0.0000000  0  9G01G07G08G11G15G17G19G26G28
 112730835.6114   87842232.2964                   21451967.4534   21451956.6144
        51.8004         47.5004
 120400935.5564   93818932.2324                   22911547.3604   22911541.1274
        50.6004         40.8004
 107222073.5684   83549682.3874                   20403690.9484   20403683.0694
        55.3004         47.0004
 113400161.2224   88363783.8614                   21579338.4264   21579330.4494
        50.7004         43.4004
 127971631.6194   99718164.4514                   24352203.1084   24352194.3044
        44.1004         39.9004
 114651960.8224   89339223.8244                   21817543.6094   21817535.7344
        51.8004         46.3004
 131072218.9544  102134199.8374                   24942227.0524   24942218.8114
        40.6004         38.3004
 121204671.3184   94445210.6724                   23064492.7134   23064483.7964
        47.1004         41.3004
 109847035.3594   85595119.8394                   20903200.0904   20903193.1314
        53.8004         47.9004
 12 10 10 15 14 30.0000000  0  9G01G07G08G11G15G17G19G26G28
 112718567.4314   87832672.6734                   21449632.7974   21449622.1994
        52.0004         47.4004
 120508729.6284   93902927.5174                   22932059.7874   22932051.7694
        49.2004         40.6004
 107268295.3954   83585699.3794                   20412486.5804   20412479.1164
        55.7004         47.2004
 113444920.0234   88398660.8254                   21587856.1484   21587849.4714
        51.2004         42.5004
 127968310.3304   99715576.4394                   24351571.1914   24351562.1884
        43.9004         39.8004
 114582142.2294   89284819.7384                   21804257.6124   21804249.5834
        51.8004         46.4004
 131180030.6984  102218208.8864                   24962741.3994   24962733.5034
        40.1004         37.0004
 121264935.0144   94492169.3644                   23075960.9934   23075950.5574
        46.9004         41.6004
 109820689.2054   85574590.3644                   20898187.1854   20898179.4584
        53.7004         47.5004
 12 10 10 15 15  0.0000000  0  9G01G07G08G11G15G17G19G26G28
 112706910.7094   87823589.5314                   21447414.1354   21447403.9144
        51.4004         47.5004
 120616764.6364   93987110.5214                   22952618.1034   22952610.0034
        48.5004         41.1004
 107315097.6334   83622168.6364                   20421392.8144   20421385.5834
        55.4004         47.5004
 113490248.7714   88433981.9244                   21596481.4444   21596474.8904
        50.8004         43.0004
 127965522.7884   99713404.3154                   24351039.9704   24351028.5794
        41.2004         42.2004
 114512640.9164   89230662.8954                   21791032.1634   21791023.8474
        51.4004         47.1004
 131287848.5154  102302222.7244                   24983258.4504   24983252.3164
        41.3004         37.4004
 121325700.0134   94539518.6584                   23087524.6504   23087515.5364
        47.0004         41.5004
 109794560.3044   85554230.1874                   20893214.2554   20893207.1234
        53.5004         47.8004
 12 10 10 15 15 30.0000000  0  9G01G07G08G11G15G17G19G26G28
 112695865.7294   87814983.0654                   21445312.6464   21445302.0914
        52.1004         47.5004
 120725037.9304   94071479.2144                   22973221.6664   22973214.4364
        48.9004         40.5004
 107362479.3214   83659089.4084                   20430409.8084   20430401.7124
        55.9004         47.6004
 113536145.9034   88469745.9084                   21605215.5544   21605208.1944
        50.5004         43.0004
 127963268.4364   99711647.6434                   24350610.8404   24350602.9124
        43.3004         40.7004
 114443457.6904   89176753.9034                   21777867.2244   21777860.4344
        52.7004         46.3004
 131395670.9564  102386240.0744                   25003776.7334   25003770.5564
        41.2004         35.5004
 121386963.3394   94587256.2854                   23099181.9194   23099173.2294
        47.2004         40.5004
 109768648.9284   85534039.5014                   20888283.5574   20888277.8474
        54.0004         47.2004
 12 10 10 15 16  0.0000000  0  9G01G07G08G11G15G17G19G26G28
 112685433.1964   87806853.8144                   21443327.5204   21443316.6834
        52.2004         47.1004
 120833547.1244   94156031.7484                   22993871.1454   22993863.2114
        48.7004         40.4004
 107410439.5654   83696461.0144                   20439535.7954   20439528.2764
        55.8004         47.2004
 113582609.5974   88505951.3674                   21614057.4284   21614049.8884
        50.3004         43.5004
 127961546.9734   99710306.2284                   24350284.3154   24350273.0754
        41.8004         41.7004
 114374593.1654   89123093.2664                   21764762.8414   21764755.7124
        52.7004         46.3004
 131503496.1474  102470259.6534                   25024295.4834   25024285.4564
        39.9004         38.7004
 121448722.2084   94635380.0314                   23110934.0634   23110924.7544
        47.0004         40.6004
 109742956.1094   85514019.1244                   20883394.3234   20883388.5194
        54.0004         47.5004
 12 10 10 15 16 30.0000000  0  9G01G07G08G11G15G17G19G26G28
 112675613.3024   87799201.9464                   21441458.4254   21441448.3534
        52.4004         46.6004
 120942290.1084   94240766.4024                   23014563.9574   23014555.4364
        48.1004         40.8004
 107458977.3224   83734282.6324                   20448772.8034   20448764.4604
        55.7004         47.2004
 113629637.8854   88542596.7624                   21623007.2464   21622998.9724
        49.9004         43.7004
 127960357.9424   99709379.6994                   24350057.8234   24350046.2094
        41.3004         42.6004
 114306047.9384   89069681.4254                   21751718.8214   21751711.2484
        52.4004         46.2004
 131611322.3304  102554279.9264                   25044814.7314   25044808.0544
        40.9004         34.9004
 121510973.3834   94683887.3964                   23122779.4564   23122771.1884
        47.4004         39.7004
 109717482.2454   85494169.3674                   20878546.7364   20878540.2264
        53.6004         47.8004
 12 10 10 15 17  0.0000000  0  9G01G07G08G11G15G17G19G26G28
 112666406.9704   87792028.1684                   21439706.2784   21439696.2134
        52.0004         47.0004
 121051264.4384   94325681.3944                   23035301.7844   23035294.4974
        48.9004         40.2004
 107508092.0844   83772553.8554                   20458118.9234   20458110.7084
        55.4004         47.2004
 113677229.6944   88579681.2614                   21632062.7704   21632057.3294
        50.7004         42.6004
 127959700.6844   99708867.5514                   24349932.6724   24349922.4474
        41.2004         41.7004
 114237823.0714   89016519.2074                   21738735.6124   21738728.0324
        52.1004         46.5004
 131719148.1744  102638300.0264                   25065332.8654   25065326.1624
        41.5004         37.2004
 121573714.5324   94732776.5554                   23134718.6364   23134710.5474
        47.5004         39.5004
 109692228.5034   85474491.1224                   20873741.1724   20873734.4154
        53.3004         48.0004
 12 10 10 15 17 30.0000000  0  9G01G07G08G11G15G17G19G26G28
 112657814.4164   87785332.6714                   21438070.9884   21438060.9894
        51.4004         47.0004
 121160467.6844   94410774.7294                   23056082.1964   23056072.1644
        47.3004         40.5004
 107557782.7734   83811273.8544                   20467574.5094   20467566.5984
        55.0004         47.1004
 113725382.9924   88617203.2924                   21641226.0494   21641220.5654
        51.6004         42.0004
 127959575.0344   99708769.6204                   24349910.7864   24349899.1444
        40.5004         41.6004
 114169918.9764   88963606.9484                   21725813.9614   21725805.9104
        51.4004         46.6004
 131826971.8534  102722318.3534                   25085851.4634   25085842.3644
        38.7004         38.7004
 121636942.4164   94782045.0114                   23146749.2354   23146742.6504
        47.2004         39.0004
 109667195.4584   85454984.8524                   20868977.8044   20868970.5394
        53.7004         47.7004
 12 10 10 15 18  0.0000000  0  9G01G07G08G11G15G17G19G26G28
 112649835.6904   87779115.4884                   21436553.0274   21436542.4894
        51.3004         47.3004
 121269896.8854   94496044.1244                   23076904.9564   23076899.9534
        48.9004         37.7004
 107608048.1554   83850441.6674                   20477139.6284   20477132.2014
        55.3004         47.3004
 113774095.4134   88655161.0094                   21650496.1684   21650489.7314
        51.2004         41.9004
 127959980.5104   99709085.5794                   24349986.3014   24349972.2934
        37.6004         44.8004
 114102335.9774   88910944.8984                   21712953.2974   21712945.6304
        51.7004         46.7004
 131934791.5724  102806333.6254                   25106368.6094   25106362.3094
        41.1004         36.5004
 121700653.7874   94831690.2174                   23158872.7524   23158867.3114
        47.1004         38.2004
 109642383.4084   85435650.7934                   20864256.3744   20864249.8454
        53.9004         47.7004
 12 10 10 15 18 30.0000000  0  9G01G07G08G11G15G17G19G26G28
 112642471.5824   87773377.2244                   21435151.4904   21435141.3104
        51.6004         47.2004
 121379550.5684   94581488.4214                   23097771.9034   23097763.1534
        46.6004         39.7004
 107658887.4044   83890056.6454                   20486814.2264   20486807.0184
        55.6004         47.1004
 113823365.7404   88693553.4604                   21659870.7884   21659865.0774
        50.5004         42.0004
 127960916.6954   99709815.0584                   24350164.9064   24350150.8034
        37.5004         43.7004
 114035075.3554   88858534.0474                   21700153.6034   21700146.8474
        51.8004         46.1004
 132042605.9674  102890344.7854                   25126884.2824   25126879.9614
        42.1004         35.7004
 121764846.0464   94881710.1284                   23171087.1544   23171081.5164
        46.6004         37.8004
 109617793.5844   85416489.8894                   20859577.0304   20859570.6034
        53.8004         47.5004
 12 10 10 15 19  0.0000000  0  9G01G07G08G11G15G17G19G26G28
 112635722.4434   87768118.1514                   21433867.2974   21433857.0234
        51.7004         47.5004
 121489426.1274   94667105.5894                   23118680.4344   23118672.8584
        46.6004         39.8004
 107710299.0694   83930117.6664                   20496597.4764   20496589.2384
        55.1004         47.6004
 113873192.3344   88732379.3664                   21669353.3264   21669346.4084
        50.2004         42.7004
 127962382.9044   99710957.5274                   24350443.7364   24350430.5894
        37.7004         44.5004
 113968137.5964   88806374.7664                   21687415.9714   21687409.1354
        52.3004         46.7004
 132150413.3574  102974350.4694                   25147400.3014   25147394.3424
        41.3004         36.5004
 121829516.3244   94932102.5234                   23183395.4634   23183387.4594
        45.8004         38.8004
 109593426.5974   85397502.6294                   20854939.9474   20854933.1374
        53.2004         48.3004
 12 10 10 15 19 30.0000000  0  9G01G07G08G11G15G17G19G26G28
 112629588.5054   87763338.4544                   21432700.2824   21432689.2664
        51.9004         47.1004
 121599521.0784   94752893.7704                   23139631.4654   23139622.6254
        46.4004         40.1004
 107762282.7354   83970624.4074                   20506489.6904   20506481.5524
        55.4004         47.2004
 113923572.7954   88771636.8464                   21678940.7694   21678934.2564
        50.4004         42.6004
 127964378.8814   99712512.8174                   24350824.7424   24350813.1954
        39.9004         41.4004
 113901523.2914   88754467.5334                   21674739.3774   21674732.9924
        52.7004         45.9004
 132258212.2904  103058349.5264                   25167913.1714   25167905.0204
        39.9004         36.6004
 121894661.4734   94982864.9344                   23195792.7144   23195783.9964
        46.1004         38.3004
 109569283.0974   85378689.5144                   20850345.6514   20850338.8884
        53.6004         48.1004
 12 10 10 15 20  0.0000000  0  9G01G07G08G11G15G17G19G26G28
 112624070.0124   87759038.3184                   21431649.5304   21431639.9354
        52.4004         46.5004
 121709832.8454   94838850.8974                   23160623.3624   23160614.1844
        46.2004         39.6004
 107814836.8934   84011575.6824                   20516490.4014   20516482.0494
        55.2004         47.0004
 113974504.9864   88811324.2484                   21688633.3244   21688625.7874
        50.3004         43.0004
 127966903.7884   99714480.2424                   24351304.6724   24351293.3974
        39.5004         41.5004
 113835233.2194   88702812.9444                   21662124.9364   21662117.9924
        52.8004         45.9004
 132366000.9894  103142340.6314                   25188424.3374   25188417.8194
        40.7004         36.1004
 121960278.3354   95033994.9204                   23208280.4344   23208270.1564
        46.3004         38.7004
 109545363.4474   85360050.8244                   20845794.0434   20845787.1244
        53.9004         47.9004
 12 10 10 15 20 30.0000000  0  9G01G07G08G11G15G17G19G26G28
 112619167.2844   87755218.0074                   21430716.3824   21430705.9774
        51.4004         47.1004
 121820359.3444   94924975.3004                   23181656.2244   23181647.1104
        46.5004         40.5004
 107867960.6174   84052970.7724                   20526599.8454   20526591.2694
        54.9004         47.1004
 114025987.3834   88851440.3794                   21698429.7014   21698422.3894
        50.3004         43.2004
 127969956.9074   99716859.2824                   24351884.9364   24351872.0724
        37.9004         42.3004
 113769267.8154   88651411.3494                   21649572.3334   21649565.6134
        52.6004         46.1004
 132473777.7434  103226322.4254                   25208934.9464   25208927.4854
        40.1004         37.1004
 122026364.0734   95085490.2674                   23220855.9564   23220847.3714
        46.6004         38.4004
 109521669.0494   85341587.6644                   20841284.9214   20841277.8744
        53.4004         48.3004
 12 10 10 15 21  0.0000000  0  9G01G07G08G11G15G17G19G26G28
 112614880.5064   87751877.6534                   21429901.5964   21429890.3834
        51.8004         46.8004
 121931097.9364   95011264.9964                   23202728.8574   23202721.3514
        47.6004         39.9004
 107921652.6664   84094808.7034                   20536816.8454   20536808.8804
        55.3004         46.6004
 114078018.7874   88891984.3144                   21708330.1904   21708324.3454
        50.5004         42.2004
 127973537.7814   99719649.5954                   24352565.9294   24352556.9454
        40.7004         40.0004
 113703627.7054   88600263.2374                   21637081.6114   21637074.2864
        52.8004         45.8004
 132581541.0634  103310293.7474                   25229440.4324   25229432.9864
        38.7004         37.0004
 122092915.6354   95137348.5834                   23233520.1044   23233511.4804
        46.5004         38.8004
 109498200.2814   85323300.3114                   20836819.0964   20836812.3784
        53.6004         48.1004
 12 10 10 15 21 30.0000000  0  9G01G07G08G11G15G17G19G26G28
 112611210.0494   87749017.5354                   21429203.1054   21429191.6284
        51.3004         47.1004
 122042046.8964   95097718.5894                   23223842.1014   23223833.3034
        46.9004         40.7004
 107975911.8564   84137088.5774                   20547141.9314   20547133.5614
        54.9004         46.3004
 114130596.4894   88932953.9434                   21718335.1544   21718329.9094
        50.6004         41.4004
 127977645.8134   99722850.6674                   24353346.3564   24353334.2754
        37.6004         42.3004
 113638313.8134   88549369.3004                   21624652.7564   21624645.4254
        52.7004         46.1004
 132689289.7794  103394253.7204                   25249947.3544   25249939.0344
        40.1004         35.0004
 122159929.9854   95189567.5004                   23246271.3034   23246262.7604
        45.9004         38.4004
 109474958.0914   85305189.5164                   20832396.1584   20832389.3054
        53.4004         48.0004
 12 10 10 15 22  0.0000000  0  9G01G07G08G11G15G17G19G26G28
 112608155.8044   87746637.6034                   21428621.8394   21428611.0704
        51.6004         46.8004
 122153202.8654   95184333.5004                   23244994.8304   23244986.4194
        47.0004         40.6004
 108030736.9194   84179809.3854                   20557575.1144   20557567.3824
        55.3004         46.3004
 114183718.4574   88974347.6654                   21728443.9764   21728438.0654
        50.2004         41.9004
 127982280.2964   99726461.9394                   24354228.7874   24354212.6104
        36.3004         43.0004
 113573326.4034   88498729.7794                   21612286.0914   21612278.4224
        52.2004         46.3004
 132797021.8564  103478200.7284                   25270444.3294   25270441.2744
        40.6004         35.2004
 122227403.8844   95242144.5494                   23259111.1614   23259103.1464
        45.5004         38.2004
 109451942.8264   85287255.5484                   20828016.1944   20828009.2534
        53.0004         48.6004
 12 10 10 15 22 30.0000000  0  9G01G07G08G11G15G17G19G26G28
 112605718.2284   87744738.1864                   21428157.8844   21428147.1604
        51.6004         47.1004
 122264563.8514   95271108.1464                   23266185.6704   23266176.2654
        46.2004         39.4004
 108086126.9984   84222970.4604                   20568115.1474   20568108.0144
        55.0004         45.9004
 114237383.0774   89016164.2444                   21738655.9434   21738650.2294
        50.9004         41.1004
 127987440.3464   99730482.7724                   24355212.4364   24355195.8714
        37.0004         42.5004
 113508666.2834   88448345.2924                   21599981.9194   21599973.3014
        51.8004         46.8004
 132904735.9834  103562133.7304                   25290942.6954   25290936.6284
        40.5004         36.2004
 122295334.5494   95295077.4564                   23272038.6554   23272028.0814
        43.9004         38.7004
 109429155.6814   85269499.3324                   20823679.9094   20823673.6084
        53.9004         47.7004
 12 10 10 15 23  0.0000000  0  9G01G07G08G11G15G17G19G26G28
 112603897.4024   87743319.3504                   21427811.9134   21427800.8164
        52.0004         47.2004
 122376127.5314   95358040.7274                   23287417.0004   23287407.4564
        47.2004         39.7004
 108142080.6754   84266570.7114                   20578762.6054   20578754.8574
        55.0004         45.8004
 114291588.5454   89058402.2494                   21748971.3884   21748966.1784
        51.0004         41.3004
 127993125.7714   99734912.9154                   24356292.8294   24356281.5644
        38.0004         42.9004
 113444334.0124   88398216.2704                   21587739.5864   21587731.6184
        52.4004         46.5004
 133012430.6884  103646051.6004                   25311438.6844   25311430.0424
        40.6004         36.2004
 122363718.7664   95348363.8184                   23285050.9444   23285044.2344
        46.0004         36.6004
 109406597.4104   85251921.4614                   20819387.2754   20819380.7544
        53.8004         47.8004
 12 10 10 15 23 30.0000000  0  9G01G07G08G11G15G17G19G26G28
 112602693.5134   87742381.2444                   21427582.2574   21427571.8004
        52.0004         46.9004
 122487891.4514   95445129.3824                   23308684.0784   23308675.4984
        47.6004         39.3004
 108198596.7004   84310609.1624                   20589516.7774   20589509.5984
        54.8004         45.7004
 114346332.6924   89101060.0174                   21759389.5034   21759382.7264
        50.7004         41.6004
 127999335.5204   99739751.7104                   24357475.7264   24357468.0524
        41.0004         40.2004
 113380330.2414   88348343.2104                   21575559.6984   21575552.3924
        52.6004         46.1004
 133120104.5754  103729953.2914                   25331926.1504   25331919.7974
        40.1004         35.9004
 122432553.5984   95402001.3344                   23298148.5344   23298143.9724
        46.4004         35.3004
 109384268.7854   85234522.5374                   20815138.2214   20815131.4794
        53.7004         47.8004
 12 10 10 15 24  0.0000000  0  9G01G07G08G11G15G17G19G26G28
 112602106.4754   87741923.8114                   21427470.9194   21427460.2794
        52.1004         46.7004
 122599853.4794   95532372.3774                   23329989.9654   23329981.3804
        46.8004         39.1004
 108255673.6804   84355084.7234                   20600378.5454   20600370.4104
        54.8004         45.7004
 114401613.2554   89144135.7464                   21769908.8114   21769902.2404
        50.2004         41.8004
 128006068.9844   99744998.5514                   24358756.5424   24358748.9054
        41.5004         40.2004
 113316655.2734   88298726.3524                   21563443.0484   21563436.0344
        53.0004         45.6004
 133227755.8434  103813837.2854                   25352411.9004   25352405.8924
        40.1004         34.9004
 122501835.6784   95455987.3594                   23311332.8444   23311326.8564
        45.9004         36.2004
 109362170.2664   85217302.9124                   20810933.0174   20810927.2944
        54.0004         47.7004
 12 10 10 15 24 30.0000000  0  9G01G07G08G11G15G17G19G26G28
 112602136.3974   87741947.1104                   21427476.4754   21427465.3024
        51.5004         47.3004
 122712010.5934   95619767.3754                   23351332.1634   23351325.2934
        46.7004         38.0004
 108313310.5274   84399996.5254                   20611346.7014   20611339.5854
        55.3004         46.1004
 114457428.2914   89187627.9584                   21780529.2684   21780523.9524
        50.0004         41.5004
 128013325.1654   99750652.7594                   24360138.0914   24360127.7604
        41.0004         42.1004
 113253309.5704   88249366.0714                   21551388.4954   21551382.2084
        53.0004         45.4004
 133335382.5814  103897702.2024                   25372894.5834   25372887.1394
        40.5004         33.6004
 122571561.9364   95510319.4774                   23324601.6024   23324594.6314
        44.8004         37.7004
 109340302.3874   85200263.0054                   20806771.6384   20806765.6044
        53.6004         47.7004
 12 10 10 15 25  0.0000000  0  9G01G07G08G11G15G17G19G26G28
 112602783.1254   87742451.0474                   21427599.6144   21427588.4064
        51.7004         47.2004
 122824360.3434   95707312.4744                   23372712.2184   23372703.1164
        45.5004         38.7004
 108371505.7654   84445343.4584                   20622420.9844   20622413.0364
        55.1004         46.4004
 114513775.7504   89231535.0704                   21791252.6654   21791246.1514
        49.8004         41.6004
 128021103.2874   99756713.6414                   24361619.0314   24361604.6844
        38.9004         43.8004
 113190293.9574   88200263.0004                   21539396.7324   21539390.3244
        52.7004         45.6004
 133442983.6444  103981547.1434                   25393370.5554   25393360.6504
        39.5004         34.8004
 122641729.2404   95564995.2384                   23337955.5914   23337947.2894
        44.7004         38.2004
 109318666.0674   85183403.5394                   20802654.0924   20802648.1874
        53.4004         47.4004
 12 10 10 15 25 30.0000000  0  9G01G07G08G11G15G17G19G26G28
 112604047.0554   87743435.9284                   21427840.1374   21427828.9174
        51.7004         47.6004
 122936901.0264   95795006.3584                   23394129.1744   23394118.7294
        45.0004         39.0004
 108430258.2794   84491124.6084                   20633601.8104   20633593.7734
        55.1004         46.9004
 114570654.1034   89275855.8514                   21802076.7464   21802069.6354
        49.7004         42.1004
 128029402.9194   99763180.8284                   24363197.5404   24363187.2964
        41.0004         43.6004
 113127609.2284   88151417.7704                   21527468.4444   21527461.7984
        52.7004         46.1004
 133550558.1354  104065371.3614                   25413838.6654   25413831.4654
        39.0004         34.8004
 122712334.6824   95620012.3984                   23351392.4944   23351383.3964
        45.3004         39.9004
 109297262.5274   85166725.4574                   20798581.0344   20798575.1974
        53.6004         47.7004
 12 10 10 15 26  0.0000000  0  9G01G07G08G11G15G17G19G26G28
 112605928.0994   87744901.6584                   21428197.7774   21428187.4574
        52.2004         47.2004
 123049629.8964   95882846.9094                   23415580.3254   23415572.6064
        46.8004         37.7004
 108489566.9004   84537339.0874                   20644888.0474   20644879.9284
        55.3004         47.1004
 114628061.2144   89320588.6394                   21813000.5174   21812993.9414
        49.8004         42.0004
 128038223.1024   99770053.7024                   24364877.1264   24364866.2304
        41.8004         44.2004
 113065256.1154   88102830.9414                   21515603.3374   21515595.4044
        52.4004         46.1004
 133658104.1894  104149173.3704                   25434305.5944   25434296.8854
        38.6004         34.5004
 122783375.0154   95675368.4514                   23364911.3774   23364901.1554
        45.0004         40.0004
 109276092.5144   85150229.3394                   20794552.5914   20794545.7944
        53.1004         48.0004
 12 10 10 15 26 30.0000000  0  9G01G07G08G11G15G17G19G26G28
 112608425.8654   87746847.9734                   21428672.9574   21428662.7614
        52.2004         46.9004
 123162544.2064   95970831.9464                   23437066.4914   23437057.6604
        45.1004         38.8004
 108549430.0044   84583985.6474                   20656279.6674   20656270.6174
        54.8004         46.9004
 114685994.3654   89365731.3504                   21824025.0104   21824018.6634
        49.8004         41.9004
 128047562.7914   99777331.3334                   24366653.0254   24366641.5504
        41.0004         44.5004
 113003234.4504   88054502.3824                   21503800.7464   21503793.7354
        52.7004         46.0004
 133765620.2054  104232952.0094                   25454764.0374   25454755.5554
        38.5004         36.2004
 122854846.9014   95731060.7614                   23378511.2744   23378500.9554
        44.0004         39.8004
 109255156.4344   85133915.5094                   20790569.0284   20790562.6984
        53.5004         48.1004
 12 10 10 15 27  0.0000000  0  9G01G07G08G11G15G17G19G26G28
 112611540.5984   87749275.0384                   21429265.8714   21429256.4034
        52.3004         46.9004
 123275641.8934   96058959.8694                   23458589.6294   23458578.4594
        44.6004         38.3004
 108609846.1104   84631063.1104                   20667776.1364   20667768.0194
        54.7004         46.6004
 114744451.7254   89411282.5164                   21835149.3814   21835141.3494
        49.3004         42.0004
 128057421.2224   99785013.2374                   24368529.1694   24368520.3424
        42.9004         42.9004
