     2.11           OBSERVATION DATA    G (GPS)             RINEX VERSION / TYPE
teqc  2013Nov15     NGS Web User        20150520 20:16:33UTCPGM / RUN BY / DATE
Solaris 5.10|UltraSparc IIIi|cc -m64 SS12.1|=+|*Sparc       COMMENT
teqc  2012Jun6      NOAA/NOS/NGS/CORS   20121011 00:43:04UTCCOMMENT
Solaris x86 5.10|AMD64|cc SC5.8 -xarch=amd64|=+|=+          COMMENT
teqc  2012Jun6      NOAA/NOS/NGS/CORS   20121011 00:42:49UTCCOMMENT
     2.10           OBSERVATION DATA    G (GPS)             COMMENT
NSTB2RINEX 2.06     NOAA/NOS/NGS/CORS   20121011 00:42:27UTCCOMMENT
Forced Modulo Decimation to 30 seconds                      COMMENT
ZMP1                                                        MARKER NAME
Tom McHugh          Federal Aviation Administration         OBSERVER / AGENCY
7BC1                NOV WAASGII         2.003               REC # / TYPE / VERS
unknown             MPL_WAAS_2225NW NONE                    ANT # / TYPE
  -249977.5300 -4539298.5130  4458954.8020                  APPROX POSITION XYZ
        0.0000        0.0000        0.0000                  ANTENNA: DELTA H/E/N
     1     1                                                WAVELENGTH FACT L1/2
     7    L1    L2    P1    P2    C1    S1    S2            # / TYPES OF OBSERV
    30.0000                                                 INTERVAL
teqc windowed: start @ 2012 Oct 10 16:00:00.000             COMMENT
teqc windowed:  end  @ 2012 Oct 10 17:00:00.000             COMMENT
teqc edited: all GLONASS satellites excluded                COMMENT
  2012    10    10    16     0    0.0000000     GPS         TIME OF FIRST OBS
                                                            END OF HEADER
 12 10 10 16  0  0.0000000  0 12G01G04G07G08G09G11G15G17G20G26G28G32
 114155311.4104   88952213.0384                   21723036.7514   21723025.9334
        50.3004         45.8004
 129067054.4724  100571750.8944                   24560650.1474   24560637.9394
        43.7004         36.9004
 131022348.2474  102095339.8784                   24932753.6854   24932737.8444
        39.4004         34.8004
 113733214.5904   88623296.1584                   21642722.2624   21642714.7584
        52.2004         43.2004
 126286822.9844   98405314.0654                   24031588.1624   24031578.9384
        40.3004         33.8004
 119646214.5684   93230836.2884                   22767926.0764   22767917.1784
        45.9004         39.4004
 129793201.1654  101137567.2974                   24698837.0424   24698829.2034
        42.9004         36.8004
 109623847.6894   85421214.4614                   20860724.3854   20860717.1164
        53.9004         47.8004
 130861456.9594  101969985.1664                   24902111.4544   24902100.4664
        42.4004         34.5004
 128453790.4224  100093867.4124                   24443960.6354   24443949.0014
        42.9004         37.3004
 108428652.1694   84489886.0124                   20633290.3974   20633284.3134
        53.4004         47.7004
 132324784.5024  103110247.8854                   25180576.3084   25180564.9964
        39.3004         34.4004
 12 10 10 16  0 30.0000000  0 12G01G04G07G08G09G11G15G17G20G26G28G32
 114198270.6844   88985687.7904                   21731211.3644   21731199.9204
        49.8004         46.3004
 128946414.2834  100477745.7874                   24537692.6594   24537680.6234
        43.0004         37.1004
 131142133.5834  102188678.8824                   24955549.2274   24955535.0324
        39.8004         31.6004
 113826499.2944   88695985.4954                   21660474.4814   21660466.2924
        52.3004         43.7004
 126179366.5074   98321581.7294                   24011140.6614   24011131.6504
        40.5004         38.0004
 119734418.3724   93299566.4824                   22784710.5724   22784703.3644
        46.5004         38.1004
 129834754.6514  101169946.5724                   24706744.7714   24706730.5364
        39.1004         40.5004
 109585185.3964   85391088.0044                   20853367.1334   20853359.7274
        53.9004         48.0004
 130781331.3494  101907549.8194                   24886861.9614   24886853.6524
        42.7004         34.8004
 128546798.3304  100166340.9844                   24461660.0174   24461649.9944
        43.9004         36.7004
 108425582.0724   84487493.7274                   20632706.1144   20632700.2964
        53.6004         47.7004
 132269470.3824  103067146.0384                   25170047.0724   25170038.9664
        38.9004         33.6004
 12 10 10 16  1  0.0000000  0 12G01G04G07G08G09G11G15G17G20G26G28G32
 114241784.2924   89019594.4784                   21739491.4314   21739479.9774
        49.2004         46.5004
 128825795.8594  100383757.6934                   24514740.7904   24514725.7914
        41.0004         37.8004
 131261935.7394  102282031.0764                   24978345.0784   24978333.5684
        41.0004         34.1004
 113920198.9764   88768998.1784                   21678305.0504   21678296.8084
        51.6004         43.9004
 126072201.9634   98238076.9524                   23990744.9874   23990739.5024
        41.8004         33.4004
 119822979.3634   93368575.0004                   22801562.2924   22801555.5064
        45.9004         38.1004
 129876720.8754  101202647.4484                   24714730.5394   24714721.1204
        42.3004         39.0004
 109546872.0354   85361233.4384                   20846076.1754   20846069.1304
        53.7004         48.4004
 130701336.1504  101845216.0094                   24871639.1274   24871629.8304
        40.6004         34.8004
 128640005.0324  100238969.4544                   24479395.5784   24479384.9444
        43.1004         37.3004
 108422804.7714   84485329.5904                   20632177.7534   20632171.4884
        53.3004         47.9004
 132214475.2284  103024292.7374                   25159582.1714   25159576.0544
        40.3004         33.2004
 12 10 10 16  1 30.0000000  0 12G01G04G07G08G09G11G15G17G20G26G28G32
 114285850.1864   89053931.5114                   21747876.8754   21747865.9384
        49.6004         45.6004
 128705201.2324  100289788.1174                   24491791.1334   24491777.5804
        42.0004         36.4004
 131381751.6484  102375393.8424                   25001141.2334   25001133.7794
        41.2004         28.8004
 114014310.6714   88842331.8984                   21696213.1014   21696205.3914
        51.3004         42.8004
 125965331.8364   98154801.5224                   23970413.5774   23970402.3424
        41.5004         36.6004
 119911894.6994   93437859.6444                   22818482.5024   22818476.0384
        45.8004         37.7004
 129919097.2304  101235667.9794                   24722795.4184   24722786.5774
        43.5004         38.6004
 109508907.4224   85331650.6274                   20838851.8244   20838844.9544
        54.2004         48.0004
 130621473.9544  101782985.9134                   24856443.1724   24856433.0104
        39.6004         35.4004
 128733406.7494  100311749.8744                   24497171.5874   24497161.0854
        44.2004         37.1004
 108420320.5494   84483393.8274                   20631705.0654   20631698.3284
        53.1004         48.0004
 132159801.1544  102981689.5184                   25149180.1674   25149171.7134
        40.0004         33.8004
 12 10 10 16  2  0.0000000  0 12G01G04G07G08G09G11G15G17G20G26G28G32
 114330466.9244   89088697.7984                   21756366.5324   21756356.5894
        49.9004         44.7004
 128584633.2384  100195839.2504                   24468848.1394   24468835.5324
        44.0004         34.4004
 131501579.4244  102468766.0264                   25023951.0054   25023934.3094
        40.0004         35.7004
 114108832.1084   88915984.9034                   21714200.1124   21714191.8914
        51.1004         42.7004
 125858759.5854   98071758.2924                   23950132.2114   23950118.7004
        38.2004         38.6004
 120001161.9844   93507418.5434                   22835468.8534   22835462.7824
        45.8004         38.2004
 129961882.7664  101269007.3054                   24730937.0824   24730926.6524
        41.3004         39.3004
 109471292.0454   85302339.9444                   20831693.8184   20831686.2484
        53.9004         48.3004
 130541748.2614  101720862.1884                   24841272.1864   24841259.8044
        37.5004         34.0004
 128827000.3184  100384679.7864                   24514981.0114   24514969.0794
        43.0004         38.1004
 108418130.8864   84481687.5914                   20631288.6594   20631281.6744
        53.3004         48.4004
 132105451.3164  102939339.0654                   25138837.9504   25138827.8644
        39.9004         36.3004
 12 10 10 16  2 30.0000000  0 12G01G04G07G08G09G11G15G17G20G26G28G32
 114375632.7944   89123891.9704                   21764961.4704   21764950.7134
        49.6004         45.3004
 128464094.4624  100101913.1244                   24445909.6794   24445896.5244
        44.6004         34.4004
 131621416.7354  102562145.5114                   25046749.5924   25046740.8644
        40.8004         31.6004
 114203760.6664   88989955.1354                   21732264.2384   21732257.0714
        51.7004         42.3004
 125752488.3844   97988949.5924                   23929910.1094   23929898.3954
        41.1004         37.3004
 120090778.4584   93577249.5384                   22852522.7204   22852515.2594
        45.3004         39.0004
 130005075.0284  101302663.5314                   24739155.2234   24739148.7684
        43.9004         37.3004
 109434025.4284   85273301.0244                   20824602.8704   20824595.0424
        54.3004         48.4004
 130462161.9534  101658847.0154                   24826127.9364   24826115.4974
        38.1004         34.4004
 128920782.1894  100457756.4394                   24532827.8844   24532819.1004
        45.2004         36.0004
 108416235.9974   84480211.0464                   20630928.1294   20630921.6254
        53.5004         48.5004
 132051428.1994  102897243.1244                   25128557.7864   25128546.5944
        38.3004         36.5004
 12 10 10 16  3  0.0000000  0 12G01G04G07G08G09G11G15G17G20G26G28G32
 114421346.0024   89159512.6384                   21773660.5524   21773651.0264
        49.9004         45.4004
 128343587.4914  100008011.7534                   24422976.8264   24422963.6244
        43.5004         36.9004
 131741261.1814  102655530.6954                   25069558.7584   25069547.0254
        41.6004         31.8004
 114299093.8544   89064240.6804                   21750405.9164   21750398.3794
        51.8004         43.0004
 125646521.2464   97906377.8404                   23909744.0154   23909736.0464
        43.4004         36.3004
 120180741.4224   93647350.5194                   22869642.6864   22869633.6054
        44.3004         38.9004
 130048671.4084  101336634.6934                   24747451.2284   24747444.7714
        43.0004         37.0004
 109397107.5134   85244533.8194                   20817577.8204   20817570.0944
        54.3004         48.8004
 130382717.6714  101596942.4804                   24811006.7544   24811000.6214
        39.5004         33.6004
 129014749.0094  100530977.1944                   24550708.3654   24550698.3324
        43.5004         36.6004
 108414637.1394   84478965.1784                   20630623.7604   20630617.6604
        53.6004         48.1004
 131997734.3644  102855403.8274                   25118339.7344   25118329.9024
        39.5004         35.4004
 12 10 10 16  3 30.0000000  0 12G01G04G07G08G09G11G15G17G20G26G28G32
 114467604.8684   89195558.4994                   21782463.7084   21782454.0104
        50.2004         45.0004
 128223114.7834   99914137.1034                   24400051.7714   24400038.4814
        43.4004         37.1004
 131861110.0964  102748919.1654                   25092364.6744   25092353.9584
        37.6004         34.0004
 114394829.1594   89138839.5534                   21768624.4484   21768615.8464
        51.8004         43.5004
 125540861.5354   97824045.5794                   23889637.1834   23889626.9454
        41.6004         35.2004
 120271048.7764   93717719.8164                   22886829.2334   22886819.1754
        44.3004         39.4004
 130092669.8944  101370919.1974                   24755823.4964   24755815.8654
        42.2004         36.5004
 109360538.3524   85216038.3694                   20810618.7294   20810611.3784
        54.6004         48.7004
 130303419.2504  101535151.6334                   24795916.9314   24795909.4584
        40.6004         33.6004
 129108897.3024  100604339.4124                   24568624.0444   24568613.7364
        43.9004         37.5004
 108413335.1674   84477950.6434                   20630376.1544   20630369.4354
        53.6004         48.7004
 131944372.6834  102813823.2964                   25108186.2094   25108176.8774
        41.3004         35.2004
 12 10 10 16  4  0.0000000  0 12G01G04G07G08G09G11G15G17G20G26G28G32
 114514407.4664   89232028.0214                   21791370.5744   21791360.1404
        50.2004         45.3004
 128102678.7084   99820291.0284                   24377133.3814   24377120.4584
        42.9004         39.0004
 131980961.1184  102842309.4754                   25115168.9764   25115158.2064
        39.6004         28.7004
 114490963.7734   89213749.5684                   21786918.4434   21786909.8734
        51.9004         43.3004
 125435512.2794   97741955.2764                   23869591.3914   23869580.2444
        41.7004         35.5004
 120361697.2434   93788354.9344                   22904079.5484   22904069.8034
        44.4004         39.1004
 130137067.9264  101405515.0504                   24764275.1374   24764267.1364
        43.3004         37.5004
 109324317.8154   85187814.5744                   20803725.7894   20803719.1104
        54.8004         48.4004
 130224269.1314  101473476.2964                   24780855.5234   24780847.3684
        42.1004         32.5004
 129203223.5024  100677840.1694                   24586574.7164   24586561.9194
        42.3004         37.8004
 108412330.8334   84477168.0384                   20630185.4384   20630178.0434
        53.1004         48.7004
 131891345.4284  102772503.3994                   25098096.5124   25098083.7224
        39.0004         37.3004
 12 10 10 16  4 30.0000000  0 12G01G04G07G08G09G11G15G17G20G26G28G32
 114561752.2674   89268920.0464                   21800379.5294   21800369.8844
        50.3004         45.2004
 127982282.1354   99726475.7414                   24354223.2454   24354210.7844
        41.7004         38.9004
 132100812.2694  102935699.6014                   25137979.1204   25137967.4154
        37.6004         34.5004
 114587494.9624   89288968.6194                   21805287.5034   21805278.5964
        51.7004         43.3004
 125330476.9944   97660109.6864                   23849604.8694   23849593.8494
        42.6004         38.1004
 120452684.1854   93859253.8054                   22921391.6004   22921385.0134
        45.1004         37.6004
 130181863.9604  101440420.9714                   24772798.7634   24772789.2694
        41.9004         39.9004
 109288446.0704   85159862.5684                   20796899.2974   20796892.0664
        54.3004         48.3004
 130145270.7234  101411919.1544                   24765823.2364   24765813.8094
        42.6004         34.5004
 129297724.4624  100751477.1694                   24604557.1394   24604547.6904
        43.6004         37.4004
 108411625.2724   84476618.2454                   20630050.9484   20630043.9764
        53.6004         48.4004
 131838655.6114  102731446.4084                   25088067.1254   25088059.5154
        40.6004         36.3004
 12 10 10 16  5  0.0000000  0 12G01G04G07G08G09G11G15G17G20G26G28G32
 114609637.2784   89306233.0254                   21809491.9444   21809481.4404
        50.0004         45.6004
 127861927.4264   99632693.0984                   24331320.4614   24331307.7234
        42.4004         38.5004
 132220661.0284  103029087.9814                   25160785.6584   25160774.9684
        41.4004         27.5004
 114684420.2614   89364494.7544                   21823731.8964   21823724.3944
        52.7004         43.3004
 125225758.8974   97578511.2304                   23829676.1454   23829667.9884
        44.0004         37.7004
 120544006.8364   93930414.3154                   22938768.6504   22938764.3674
        46.5004         36.3004
 130227055.4004  101475635.0024                   24781397.5434   24781388.5524
        41.8004         38.7004
 109252923.1074   85132182.3344                   20790139.4324   20790131.9374
        54.3004         48.6004
 130066426.9764  101350482.5534                   24750819.5874   24750811.2744
        43.2004         32.9004
 129392396.5724  100825247.5034                   24622574.4964   24622561.0994
        42.6004         39.0004
 108411219.2534   84476301.8554                   20629973.6804   20629966.7954
        53.6004         48.6004
 131786305.6334  102690654.2314                   25078106.8524   25078096.9284
        39.7004         37.0004
 12 10 10 16  5 30.0000000  0 12G01G04G07G08G09G11G15G17G20G26G28G32
 114658060.8244   89343965.6374                   21818706.8384   21818695.2934
        49.7004         45.7004
 127741617.5724   99538945.3274                   24308424.9754   24308413.5984
        43.7004         36.3004
 132340505.0004  103122472.8144                   25183589.9874   25183575.9164
        36.9004         34.0004
 114781737.1494   89440326.0254                   21842250.6434   21842242.2494
        51.6004         42.8004
 125121361.0754   97497162.3274                   23809809.4864   23809801.0164
        44.2004         37.7004
 120635662.8764   94001834.5844                   22956210.2004   22956202.5384
        44.2004         37.6004
 130272640.0644  101511155.4454                   24790069.9144   24790063.2104
        41.8004         36.7004
 109217748.5504   85104773.5904                   20783445.5684   20783438.8764
        54.5004         48.2004
 129987740.7924  101289168.7174                   24735845.9014   24735836.8894
        42.5004         33.9004
 129487236.5054  100899148.5954                   24640622.0374   24640609.6564
        43.3004         38.7004
 108411113.4744   84476219.4194                   20629953.4204   20629946.4724
        53.5004         48.3004
 131734298.0724  102650128.8664                   25068209.0204   25068201.8954
        41.8004         35.4004
 12 10 10 16  6  0.0000000  0 12G01G04G07G08G09G11G15G17G20G26G28G32
 114707020.6034   89382116.1004                   21828023.1814   21828011.7274
        49.0004         46.1004
 127621354.4714   99445233.9884                   24285538.3534   24285529.0014
        44.2004         34.0004
 132460341.2764  103215851.4264                   25206392.8274   25206383.5084
        41.3004         31.7004
 114879442.4074   89516459.9214                   21860843.6864   21860834.4544
        50.8004         43.1004
 125017286.1224   97416065.0404                   23790003.4944   23789996.2694
        43.4004         35.0004
 120727649.1314   94073512.1234                   22973715.7464   22973706.5014
        44.1004         38.4004
 130318615.2954  101546980.2454                   24798820.7574   24798812.0034
        42.0004         38.3004
 109182922.2234   85077636.1874                   20776818.6584   20776812.0194
        54.6004         48.8004
 129909215.3924  101227980.1734                   24720903.4854   24720894.2364
        42.4004         35.2004
 129582240.4134  100973177.4724                   24658701.4764   24658687.7934
        42.0004         39.2004
 108411308.3554   84476371.2604                   20629990.4704   20629983.2344
        53.2004         48.7004
 131682635.3444  102609872.2084                   25058379.4784   25058368.2874
        39.4004         37.9004
 12 10 10 16  6 30.0000000  0 12G01G04G07G08G09G11G15G17G20G26G28G32
 114756515.2224   89420683.3174                   21837441.4944   21837430.9484
        49.4004         45.0004
 127501141.1454   99351561.3634                   24262662.7744   24262650.9114
        43.2004         34.0004
 132580168.2964  103309222.8984                   25229194.4344   25229184.1004
        38.6004         29.2004
 114977533.7744   89592894.6684                   21879509.7744   21879501.6194
        51.4004         42.6004
 124913537.8414   97335222.1914                   23770261.2174   23770252.4714
        43.5004         35.7004
 120819963.3214   94145445.2084                   22991284.2014   22991271.9374
        43.2004         39.7004
 130364979.0724  101583107.7904                   24807642.2544   24807633.6594
        40.8004         36.9004
 109148444.2764   85050770.2574                   20770258.4784   20770251.9904
        55.3004         48.8004
 129830853.6744  101166919.1934                   24705992.3594   24705981.4864
        41.9004         35.3004
 129677405.4434  101047331.8574                   24676808.5974   24676796.2924
        41.8004         38.9004
 108411805.1974   84476758.3994                   20630085.0344   20630078.1514
        53.3004         48.4004
 131631320.2394  102569886.4794                   25048614.8494   25048602.2174
        38.2004         37.7004
 12 10 10 16  7  0.0000000  0 12G01G04G07G08G09G11G15G17G20G26G28G32
 114806542.6954   89459665.7424                   21846961.5084   21846950.6854
        49.1004         45.4004
 127380980.1724   99257929.5864                   24239796.5064   24239785.2304
        41.1004         33.7004
 132699983.1184  103402584.9084                   25251997.3394   25251984.9524
        40.6004         32.2004
 115076008.5484   89669628.1894                   21898248.7914   21898240.1884
        50.7004         42.5004
 124810119.4224   97254636.4274                   23750581.5904   23750572.5014
        44.0004         37.5004
 120912602.7014   94217631.6584                   23008912.4674   23008905.5974
        45.6004         36.7004
 130411729.2254  101619536.3824                   24816539.8784   24816532.1664
        42.6004         37.3004
 109114314.8834   85024175.9234                   20763764.2674   20763756.4984
        54.9004         49.3004
 129752658.6194  101105988.0474                   24691110.9514   24691101.6194
        39.8004         37.3004
 129772727.8974  101121608.9404                   24694947.9994   24694937.8274
        42.7004         38.3004
 108412605.2604   84477381.8184                   20630237.2924   20630230.9004
        53.8004         48.1004
 131580355.3754  102530173.5704                   25038915.8144   25038906.2084
        39.6004         36.3004
 12 10 10 16  7 30.0000000  0 12G01G04G07G08G09G11G15G17G20G26G28G32
 114857101.1374   89499061.9164                   21856582.1424   21856572.4684
        49.9004         45.2004
 127260874.0334   99164340.5674                   24216941.3184   24216928.4084
        38.9004         34.5004
 132819783.8384  103495935.7454                   25274796.2064   25274783.7284
        40.3004         31.0004
 115174864.2884   89746658.5644                   21917060.2474   21917051.8284
        50.9004         42.2004
 124707033.9864   97174310.1654                   23730966.0674   23730955.6184
        42.2004         39.6004
 121005564.6074   94290069.4804                   23026602.1464   23026595.5344
        46.1004         37.1004
 130458863.2804  101656264.2104                   24825508.2234   24825503.1054
        43.3004         35.8004
 109080533.5294   84997852.7924                   20757335.9054   20757327.8034
        55.0004         49.4004
 129674633.5384  101045189.4154                   24676262.2474   24676253.3154
        38.9004         36.2004
 129868204.4544  101196006.1114                   24713115.7654   24713105.6234
        42.0004         37.3004
 108413709.1044   84478241.9494                   20630447.2414   20630440.7054
        53.6004         48.3004
 131529743.1464  102490735.4864                   25029283.2254   25029276.0064
        40.6004         36.1004
 12 10 10 16  8  0.0000000  0 12G01G04G07G08G09G11G15G17G20G26G28G32
 114908188.7094   89538870.3924                   21866303.9324   21866293.7324
        49.8004         44.8004
 127140825.5324   99070796.4944                   24194096.3104   24194086.2634
        38.9004         34.3004
 132939568.0444  103589273.8924                   25297590.6364   25297576.9694
        40.0004         29.8004
 115274098.1374   89823983.5774                   21935943.4784   21935935.5434
        50.6004         41.2004
 124604284.8514   97094245.9914                   23711414.4684   23711404.5454
        42.8004         38.5004
 121098846.5624   94362756.6714                   23044351.7244   23044344.8454
        45.3004         37.3004
 130506378.8314  101693289.2364                   24834550.5584   24834545.9074
        44.0004         35.1004
 109047100.2454   84971800.8864                   20750973.6614   20750965.2174
        54.6004         49.0004
 129596781.3564  100984525.4744                   24661447.6714   24661440.5834
        39.5004         35.6004
 129963831.7974  101270520.7894                   24731313.1974   24731303.4234
        42.3004         37.0004
 108415117.4444   84479339.3484                   20630715.0004   20630709.0204
        53.7004         47.7004
 131479486.2214  102451574.2744                   25019720.0324   25019709.5534
        38.6004         36.6004
 12 10 10 16  8 30.0000000  0 12G01G04G07G08G09G11G15G17G20G26G28G32
 114959803.3264   89579089.5534                   21876126.0514   21876116.0174
        49.9004         45.2004
 127020836.9854   98977299.1214                   24171263.4474   24171252.8324
        39.9004         37.5004
 133059333.2474  103682597.1294                   25320381.0964   25320368.0934
        39.9004         32.7004
 115373707.1204   89901600.8894                   21954898.7094   21954890.7044
        50.6004         41.7004
 124501874.8234   97014446.0154                   23691925.4544   23691917.0574
        44.5004         36.9004
 121192445.4214   94435690.7764                   23062162.5404   23062155.3044
        44.7004         37.2004
 130554273.8964  101730610.0264                   24843665.0064   24843658.2334
        43.6004         38.1004
 109014014.7044   84946019.9434                   20744677.1914   20744669.9454
        54.7004         48.9004
 129519105.1394  100923998.6994                   24646666.8944   24646656.8394
        39.3004         35.6004
 130059606.3584  101345150.2034                   24749538.0434   24749530.4794
        43.3004         34.8004
 108416831.1284   84480674.6734                   20631041.0474   20631034.6514
        53.3004         48.3004
 131429587.0754  102412691.8364                   25010225.1784   25010216.0464
        39.9004         36.3004
 12 10 10 16  9  0.0000000  0 12G01G04G07G08G09G11G15G17G20G26G28G32
 115011943.1594   89619717.9674                   21886048.6874   21886037.5874
        49.6004         45.4004
 126900910.9234   98883850.4754                   24148444.0794   24148433.1714
        43.6004         37.5004
 133179077.4954  103775903.9794                   25343169.4604   25343154.0104
        38.5004         31.1004
 115473688.8774   89979508.6884                   21973925.0144   21973917.0934
        50.3004         41.9004
 124399807.3684   96934912.8924                   23672500.8964   23672493.7644
        44.2004         34.2004
 121286358.7024   94508869.9364                   23080034.8754   23080028.5694
        45.5004         37.2004
 130602545.9564  101768224.5124                   24852852.5454   24852843.2274
        43.6004         37.8004
 108981277.0374   84920510.0804                   20738446.8134   20738439.6294
        54.3004         48.7004
 129441608.2114  100863611.5174                   24631918.9984   24631910.8684
        41.4004         34.7004
 130155524.8604  101419891.7374                   24767791.7484   24767777.7154
        39.0004         38.1004
 108418851.0654   84482248.6374                   20631425.5864   20631419.3684
        53.1004         48.5004
 131380048.1554  102374090.1104                   25000796.8424   25000789.7484
        39.7004         35.8004
 12 10 10 16  9 30.0000000  0 12G01G04G07G08G09G11G15G17G20G26G28G32
 115064606.0824   89660753.9854                   21896070.0654   21896057.6454
        48.8004         46.0004
 126781050.0804   98790452.5994                   24125634.2724   24125623.9474
        44.0004         36.9004
 133298798.0494  103869192.4084                   25365952.6834   25365935.2634
        37.9004         29.2004
 115574040.5294   90057704.6854                   21993021.9124   21993013.2334
        50.2004         42.7004
 124298085.5194   96855649.1124                   23653148.2524   23653133.7394
        42.1004         40.1004
 121380583.7684   94582292.0084                   23097965.9224   23097957.8644
        45.5004         37.3004
 130651192.4214  101806130.7904                   24862107.9484   24862099.8404
        43.4004         36.6004
 108948886.8884   84895270.9984                   20732283.1454   20732276.4154
        54.6004         48.7004
 129364293.2134  100803366.1244                   24617206.4584   24617197.8074
        42.9004         35.1004
 130251583.7194  101494742.6334                   24786073.4384   24786063.4264
        42.6004         36.0004
 108421178.0064   84484061.8334                   20631868.1644   20631862.1794
        53.8004         47.9004
 131330871.9674  102335771.0254                   24991438.8964   24991429.4464
        39.8004         36.8004
 12 10 10 16 10  0.0000000  0 12G01G04G07G08G09G11G15G17G20G26G28G32
 115117790.3014   89702196.1994                   21906190.1634   21906178.7354
        49.1004         45.6004
 126661257.2014   98697107.6764                   24102837.8584   24102824.8974
        41.2004         35.5004
 133418493.0274  103962460.8104                   25388725.2034   25388712.9834
        35.4004         34.1004
 115674759.5194   90136186.9374                   22012187.6004   22012179.5324
        50.6004         42.4004
 124196712.7194   96776657.4494                   23633856.9854   23633847.3104
        42.6004         39.6004
 121475117.8574   94655954.8624                   23115955.4544   23115949.4734
        46.9004         36.8004
 130700211.1704  101844327.1944                   24871436.2424   24871427.4064
        42.7004         36.7004
 108916844.3054   84870302.7474                   20726185.5894   20726179.3264
        54.8004         48.5004
 129287163.3244  100743264.9404                   24602528.5734   24602521.0834
        43.0004         33.9004
 130347779.6964  101569700.4034                   24804379.0724   24804367.0454
        42.0004         37.2004
 108423812.8474   84486114.9444                   20632369.7164   20632363.8714
        53.9004         47.9004
 131282061.0964  102297736.5594                   24982150.2554   24982142.4324
        40.4004         35.3004
 12 10 10 16 10 30.0000000  0 12G01G04G07G08G09G11G15G17G20G26G28G32
 115171493.6634   89744042.9704                   21916409.4074   21916399.3764
        49.5004         45.2004
 126541534.4524   98603817.3804                   24080054.6144   24080042.7484
        37.3004         31.7004
 133538159.8104  104055707.2554                   25411500.2254   25411486.8214
        38.6004         30.3004
 115775842.8694   90214953.1004                   22031422.9404   22031413.8454
        49.4004         42.7004
 124095692.0014   96697940.0604                   23614633.5814   23614621.0554
        42.8004         41.8004
 121569958.1584   94729856.3534                   23134003.2614   23133994.8714
        45.6004         37.9004
 130749599.7294  101882811.7004                   24880836.0844   24880825.8704
        43.1004         38.7004
 108885149.1324   84845605.2074                   20720154.2104   20720147.8124
        54.6004         48.6004
 129210221.2734  100683310.1494                   24587889.6514   24587879.3484
        42.3004         33.8004
 130444109.3284  101644762.2484                   24822708.9484   24822695.0344
        39.5004         37.7004
 108426756.4524   84488408.6514                   20632930.2224   20632923.4304
        53.6004         48.2004
 131233617.8744  102259988.6054                   24972934.8964   24972925.5334
        40.0004         33.6004
 12 10 10 16 11  0.0000000  0 12G01G04G07G08G09G11G15G17G20G26G28G32
 115225714.5474   89786292.9744                   21926728.2294   21926716.0764
        48.8004         46.4004
 126421885.0744   98510584.3124                   24057286.7314   24057271.5584
        39.2004         33.2004
 133657796.8974  104148930.5904                   25434264.5504   25434251.5374
        37.6004         30.6004
 115877288.1484   90294001.2914                   22050727.3144   22050718.8274
        49.6004         43.2004
 123995026.7204   96619499.6134                   23595474.9624   23595467.2144
        44.5004         37.9004
 121665102.7484   94803994.8984                   23152109.0264   23152101.0344
        45.3004         37.5004
 130799356.0844  101921582.8134                   24890304.2274   24890294.6344
        42.4004         37.9004
 108853801.5384   84821178.5084                   20714189.5964   20714182.4024
        54.4004         49.3004
 129133470.7444  100623504.5604                   24573284.2024   24573273.5164
        40.7004         36.2004
 130540569.4664  101719925.8674                   24841064.1884   24841053.6704
        42.0004         37.6004
 108430009.8984   84490943.7954                   20633549.6564   20633542.5714
        53.4004         48.6004
 131185545.0744  102222529.2844                   24963784.7104   24963775.4694
        39.0004         36.3004
 12 10 10 16 11 30.0000000  0 12G01G04G07G08G09G11G15G17G20G26G28G32
 115280450.5164   89828944.3334                   21937143.6154   21937131.4724
        48.7004         46.0004
 126302311.1424   98417409.9234                   24034533.5964   24034519.1604
        41.2004         35.3004
 133777401.3854  104242128.4884                   25457023.1734   25457014.7244
        35.7004         32.1004
 115979092.0164   90373328.8864                   22070100.2454   22070091.4584
        49.7004         42.8004
 123894719.6614   96541338.2064                   23576385.7614   23576379.1674
        42.6004         33.9004
 121760548.2184   94878367.9684                   23170269.9464   23170261.6744
        44.9004         36.5004
 130849477.0684  101960638.0904                   24899841.7944   24899833.3764
        42.9004         37.2004
 108822800.9164   84797022.1854                   20708290.5874   20708282.8134
        54.4004         49.2004
 129056914.1544  100563850.1684                   24558714.1914   24558706.6864
        39.3004         34.9004
 130637156.3704  101795188.2324                   24859445.8024   24859433.0434
        40.8004         37.6004
 108433573.7564   84493720.8174                   20634227.6154   20634220.7274
        53.6004         47.9004
 131137844.8264  102185360.2844                   24954708.1314   24954697.2924
        39.0004         35.6004
 12 10 10 16 12  0.0000000  0 12G01G04G07G08G09G11G15G17G20G26G28G32
 115335699.7314   89871995.6434                   21947656.7224   21947646.5194
        49.5004         44.9004
 126182815.6094   98324296.6674                   24011794.8144   24011779.7674
        42.6004         36.8004
 133896971.5154  104335299.6894                   25479778.9664   25479764.9244
        35.0004         31.0004
 116081251.9184   90452933.9134                   22089541.0354   22089532.4994
        50.3004         43.0004
 123794774.3394   96463458.7484                   23557368.4334   23557359.7404
        41.7004         37.5004
 121856292.0594   94952973.4934                   23188488.1734   23188481.3554
        45.0004         36.6004
 130899960.7984  101999976.0164                   24909447.7254   24909441.2724
        44.1004         38.1004
 108792147.2204   84773136.1834                   20702457.4884   20702449.1404
        54.4004         49.3004
 128980555.0874  100504349.7204                   24544185.4454   24544174.3314
        38.8004         36.3004
 130733866.9164  101870546.9254                   24877848.4544   24877837.8464
        40.7004         37.2004
 108437448.9714   84496740.4564                   20634964.9174   20634957.7654
        53.6004         48.1004
 131090519.7924  102148483.6114                   24945701.9874   24945693.2504
        38.7004         34.8004
 12 10 10 16 12 30.0000000  0 12G01G04G07G08G09G11G15G17G20G26G28G32
 115391460.1284   89915445.2804                   21958267.7074   21958257.3094
        49.6004         44.6004
 126063400.9684   98231246.4424                   23989069.4454   23989057.4224
        44.1004         36.3004
 134016504.9374  104428442.2524                   25502527.0364   25502513.3504
        38.1004         30.0004
 116183765.2744   90532814.3634                   22109048.5424   22109039.8274
        50.5004         42.4004
 123695193.9334   96385863.7034                   23538420.1794   23538407.8294
        43.0004         41.7004
 121952331.5924   95027809.4434                   23206765.9694   23206758.3334
        45.3004         37.8004
 130950805.0154  102039594.7864                   24919123.9184   24919113.8954
        40.8004         38.9004
 108761840.5264   84749520.5754                   20696690.6304   20696682.2324
        54.8004         49.2004
 128904396.5544  100445005.5004                   24529690.5744   24529682.5774
        41.2004         36.0004
 130830697.7184  101945999.3014                   24896274.8304   24896265.5294
        42.6004         37.0004
 108441636.2844   84500003.2824                   20635761.8274   20635755.4294
        53.5004         48.1004
 131043572.2754  102111901.2194                   24936769.2024   24936759.7924
        39.8004         34.9004
 12 10 10 16 13  0.0000000  0 12G01G04G07G08G09G11G15G17G20G26G28G32
 115447729.6574   89959291.6284                   21968974.9264   21968964.0794
        48.8004         45.1004
 125944069.8824   98138261.3684                   23966361.0234   23966349.8964
        43.6004         37.2004
 134135999.3934  104521554.5184                   25525266.3264   25525255.1174
        38.9004         31.1004
 116286629.4134   90612968.1434                   22128623.2124   22128612.9764
        49.1004         42.6004
 123595981.4544   96308555.3144                   23519539.7784   23519531.0264
        44.3004         40.5004
 122048664.1124   95102873.6844                   23225097.3934   23225089.1824
        44.9004         37.4004
 131002006.9374  102079492.2164                   24928867.0124   24928857.7304
        40.6004         38.0004
 108731880.5554   84726175.1414                   20690989.7754   20690981.2464
        54.8004         49.4004
 128828441.2964  100385819.6734                   24515236.9784   24515228.0724
        41.0004         37.2004
 130927645.2864  102021542.7844                   24914723.4104   24914714.0024
        42.0004         36.3004
 108446136.3944   84503509.8484                   20636618.4594   20636611.5524
        53.4004         48.2004
 130997004.7234  102075614.8624                   24927906.7094   24927897.1274
        39.3004         34.9004
 12 10 10 16 13 30.0000000  0 12G01G04G07G08G09G11G15G17G20G26G28G32
 115504506.3134   90003533.1484                   21979779.5914   21979769.1274
        49.2004         45.0004
 125824824.7884   98045343.3124                   23943666.2274   23943655.8474
        40.7004         37.2004
 134255453.0244  104614634.9694                   25547998.2244   25547983.3494
        38.7004         32.7004
 116389841.3264   90693392.9314                   22148263.0134   22148253.4534
        48.8004         41.9004
 123497140.2094   96231536.2144                   23500731.2504   23500719.0684
        40.6004         39.0004
 122145287.2084   95178164.3474                   23243485.7204   23243478.0204
        45.7004         36.8004
 131053564.3794  102119666.7484                   24938677.5734   24938669.6514
        42.2004         36.8004
 108702266.9804   84703099.6364                   20685353.7284   20685346.0524
        54.8004         49.4004
 128752692.4704  100326794.6974                   24500822.6604   24500813.4384
        42.8004         36.7004
 131024706.4944  102097174.7394                   24933194.8714   24933182.7444
        41.3004         38.5004
 108450950.4624   84507261.0614                   20637534.6634   20637527.2384
        53.5004         48.4004
 130950819.8214  102039626.6074                   24919117.0684   24919107.7044
        39.8004         35.5004
 12 10 10 16 14  0.0000000  0 12G01G04G07G08G09G11G15G17G20G26G28G32
 115561787.8384   90048168.0774                   21990680.6584   21990669.7444
        49.2004         45.3004
 125705668.2704   97952494.3254                   23920993.6644   23920984.0004
        42.7004         34.2004
 134374863.7724  104707682.0114                   25570718.8584   25570708.3344
        32.7004         31.2004
 116493398.1854   90774086.5064                   22167970.1154   22167960.3254
        48.7004         41.8004
 123398673.1214   96154808.6674                   23481987.8724   23481981.9414
        39.3004         33.7004
 122242198.1224   95253679.3054                   23261926.7824   23261916.1534
        43.7004         38.6004
 131105474.5764  102160116.2194                   24948552.8024   24948547.2334
        42.0004         34.4004
 108672999.6604   84680293.9264                   20679784.2404   20679776.7494
        54.8004         49.2004
 128677153.1214  100267932.9144                   24486447.5124   24486438.6174
        42.7004         36.0004
 131121877.7724  102172892.4334                   24951685.9394   24951672.9714
        40.1004         37.6004
 108456079.0594   84511257.3594                   20638510.1254   20638503.4294
        53.3004         48.1004
 130905019.5914  102003938.1734                   24910400.9294   24910393.0814
        40.0004         35.5004
 12 10 10 16 14 30.0000000  0 12G01G04G07G08G09G11G15G17G20G26G28G32
 115619572.2154   90093194.8454                   22001677.1574   22001665.0074
        48.9004         45.2004
 125586603.3574   97859716.5834                   23898336.3644   23898327.1484
        44.9004         30.7004
 134494229.8414  104800694.1874                   25593424.4934   25593422.3564
        28.3004         34.7004
 116597297.1984   90855046.6564                   22187741.3494   22187731.5524
        48.5004         41.3004
 123300583.5174   96078375.1654                   23463326.6464   23463316.8764
        43.5004         36.3004
 122339394.0804   95329416.3274                   23280421.2364   23280413.1674
        44.5004         36.7004
 131157735.2944  102200838.8474                   24958500.8854   24958491.1034
        39.9004         34.9004
 108644078.3314   84657757.8224                   20674280.0424   20674273.2874
        55.1004         48.9004
 128601826.3324  100209236.7814                   24472115.1474   24472104.0784
        43.8004         36.0004
 131219155.7314  102248693.3104                   24970196.7804   24970185.7464
        40.9004         36.0004
 108461523.2024   84515499.5404                   20639545.8854   20639539.5834
        53.8004         47.6004
 130859606.5504  101968551.4054                   24901762.0074   24901753.1564
        40.5004         35.4004
 12 10 10 16 15  0.0000000  0 11G01G04G08G09G11G15G17G20G26G28G32
 115677857.1934   90138611.6674                   22012768.4764   22012755.6954
        48.3004         45.8004
 125467632.3944   97767012.0364                   23875698.7914   23875685.8914
        44.0004         32.0004
 116701535.6484   90936271.3104                   22207577.6354   22207568.5394
        48.8004         41.3004
 123202874.4764   96002238.2624                   23444734.4814   23444724.8144
        44.9004         39.5004
 122436872.0734   95405373.1424                   23298971.1354   23298961.6124
        43.8004         38.2004
 131210343.4034  102241832.0364                   24968513.8344   24968501.7574
        39.9004         37.6004
 108615502.9974   84635491.3224                   20668842.1244   20668835.5374
        55.0004         48.8004
 128526715.1574  100150708.6454                   24457818.0274   24457810.9954
        42.6004         35.5004
 131316537.0034  102324574.5964                   24988726.8144   24988715.0664
        39.3004         35.7004
 108467283.4794   84519988.0484                   20640642.2714   20640635.4714
        53.8004         47.7004
 130814582.8954  101933468.1194                   24893192.0134   24893181.6144
        39.4004         35.2004
 12 10 10 16 15 30.0000000  0 11G01G04G08G09G11G15G17G20G26G28G32
 115736640.8484   90184417.0724                   22023954.5974   22023942.7994
        48.9004         45.6004
 125348758.2134   97674382.9814                   23853075.5164   23853064.4654
        43.1004         33.7004
 116806110.7644   91017758.3234                   22227477.3674   22227468.4094
        48.8004         41.4004
 123105549.4294   95926400.6704                   23426214.1114   23426203.6024
        42.4004         40.0004
 122534629.9504   95481548.0544                   23317572.8354   23317568.6314
        45.9004         35.9004
 131263297.3264  102283094.6844                   24978590.5064   24978583.6484
        41.6004         37.6004
 108587273.7084   84613494.4664                   20663470.6654   20663464.0804
        55.2004         49.1004
 128451822.8044  100092351.0354                   24443568.3174   24443560.7834
        42.9004         34.0004
 131414018.5214  102400534.0594                   25007279.7934   25007265.5354
        40.7004         38.1004
 108473360.7554   84524723.5834                   20641799.0464   20641792.1104
        53.5004         47.7004
 130769951.2384  101898690.1804                   24884700.3744   24884691.6524
        40.6004         35.5004
 12 10 10 16 16  0.0000000  0 11G01G04G08G09G11G15G17G20G26G28G32
 115795921.0784   90230609.4344                   22035235.9384   22035223.7634
        49.2004         45.5004
 125229983.0464   97581831.0854                   23830473.7314   23830463.0374
        43.2004         33.9004
 116911019.8844   91099505.6074                   22247441.6904   22247431.4664
        48.7004         40.8004
 123008611.7344   95850864.8994                   23407765.9324   23407754.3944
        41.0004         38.6004
 122632665.1014   95557939.0464                   23336229.3284   23336220.5094
        43.4004         36.9004
 131316594.4234  102324624.8394                   24988728.9764   24988721.0684
        40.4004         35.9004
 108559389.9324   84591766.8474                   20658164.4054   20658157.4434
        55.2004         49.2004
 128377151.9844  100034166.0644                   24429358.5474   24429349.2144
        41.6004         34.0004
 131511596.8654  102476568.9664                   25025847.0784   25025834.2844
        41.1004         37.9004
 108479755.9744   84529706.8594                   20643015.7334   20643009.3794
        53.7004         47.6004
 130725713.8634  101864219.5514                   24876281.8084   24876272.1424
        40.1004         35.0004
 12 10 10 16 16 30.0000000  0 11G01G04G08G09G11G15G17G20G26G28G32
 115855695.6254   90277186.9794                   22046609.8434   22046597.7104
        48.6004         46.0004
 125111309.9714   97489358.7284                   23807892.0894   23807880.0024
        43.2004         33.8004
 117016259.9754   91181510.7854                   22267467.0954   22267459.3554
        48.9004         40.6004
 122912064.4744   95775633.2274                   23389390.5894   23389385.5034
        45.6004         35.1004
 122730974.6944   95634543.8874                   23354939.4374   23354929.1104
        43.5004         38.1004
 131370232.1584  102366420.3914                   24998939.3114   24998931.2354
        39.6004         35.4004
 108531851.7864   84570308.5424                   20652924.3294   20652917.1354
        54.7004         49.7004
 128302705.7864   99976156.1104                   24415193.5074   24415183.0224
        41.2004         35.6004
 131609268.7894  102552676.7074                   25044434.4474   25044421.6514
        40.0004         38.9004
 108486470.0284   84534938.5834                   20644293.5924   20644287.0264
        53.6004         47.9004
 130681873.1234  101830057.9434                   24867939.8974   24867927.9484
        38.2004         37.3004
 12 10 10 16 17  0.0000000  0 11G01G04G08G09G11G15G17G20G26G28G32
 115915962.2434   90324147.9454                   22058077.8704   22058068.0334
        49.9004         44.5004
 124992741.3894   97396967.7784                   23785328.0084   23785318.8694
        45.8004         32.8004
 117121827.7994   91263771.3024                   22287556.3854   22287549.0024
        49.5004         39.9004
 122815910.5374   95700708.0464                   23371095.6194   23371089.4474
        46.7004         36.2004
 122829555.8884   95711360.3064                   23373699.0394   23373688.6754
        43.8004         37.9004
 131424207.7654  102408479.0804                   25009210.7734   25009199.1024
        41.2004         38.7004
 108504658.3644   84549118.8604                   20647749.5654   20647742.1514
        54.9004         49.3004
 128228487.4774   99918323.7634                   24401069.4894   24401060.9954
        43.0004         35.5004
 131707030.6864  102628854.6474                   25063039.8204   25063026.2794
        42.9004         38.1004
 108493503.6434   84540419.3084                   20645631.8014   20645625.7834
        53.7004         47.5004
 130638431.1474  101796207.0944                   24859674.2524   24859664.3234
        40.1004         36.2004
 12 10 10 16 17 30.0000000  0 11G01G04G08G09G11G15G17G20G26G28G32
 115976718.7814   90371490.6804                   22069639.8284   22069629.5664
        49.6004         44.8004
 124874279.8954   97304660.2364                   23762785.5084   23762775.3694
        45.1004         32.7004
 117227720.9114   91346285.3074                   22307707.9464   22307699.1044
        48.8004         40.6004
 122720153.0024   95626091.8244                   23352875.0174   23352866.1204
        43.8004         40.0004
 122928406.1934   95788386.4734                   23392506.3484   23392497.8634
        43.1004         38.5004
 131478518.5084  102450799.0994                   25019545.9734   25019537.1804
        43.4004         36.5004
 108477809.6264   84528197.7584                   20642640.6014   20642633.3774
        54.8004         49.5004
 128154499.8044   99860671.0704                   24386990.8764   24386981.2814
        42.9004         37.0004
 131804879.3814  102705100.2164                   25081659.0474   25081644.4124
        41.7004         38.1004
 108500857.2954   84546149.4084                   20647031.0554   20647024.4434
        53.5004         47.8004
 130595390.2904  101762668.7704                   24851483.0644   24851474.9994
        41.2004         34.9004
 12 10 10 16 18  0.0000000  0 11G01G04G08G09G11G15G17G20G26G28G32
 116037962.9954   90419213.4134                   22081293.4794   22081283.4844
        49.5004         44.7004
 124755928.0444   97212438.1574                   23740263.5564   23740251.7484
        42.2004         32.4004
 117333936.1524   91429050.3244                   22327920.1554   22327910.1104
        48.2004         40.5004
 122624794.8994   95551786.9664                   23334730.0624   23334719.4104
        44.3004         39.5004
 123027522.9064   95865620.2014                   23411368.8324   23411359.9104
        43.1004         37.2004
 131533162.1104  102493378.4714                   25029943.9354   25029931.7424
        40.1004         35.9004
 108451305.8794   84507545.4854                   20637597.3674   20637590.0474
        55.1004         49.6004
 128080745.9274   99803200.6114                   24372955.1984   24372946.1104
        43.5004         36.2004
 131902811.4334  102781410.7784                   25100292.7534   25100280.5754
        40.9004         37.6004
 108508532.1394   84552129.7964                   20648491.8594   20648484.6234
        53.3004         48.3004
 130552752.7504  101729444.7364                   24843367.1964   24843356.6204
        38.6004         36.6004
 12 10 10 16 18 30.0000000  0 11G01G04G08G09G11G15G17G20G26G28G32
 116099692.8634   90467314.5704                   22093040.2884   22093029.6794
        49.3004         45.0004
 124637688.5834   97120303.6534                   23717762.3684   23717751.7064
        42.6004         33.1004
 117440471.1904   91512064.5454                   22348192.0054   22348182.5174
        47.6004         39.4004
 122529839.7924   95477795.9974                   23316660.0054   23316652.1564
        47.3004         38.3004
 123126903.6414   95943059.6564                   23430279.6104   23430272.6584
        43.5004         35.7004
 131588136.1884  102536215.3734                   25040408.4774   25040393.5654
        40.1004         35.0004
 108425146.6114   84487161.6404                   20632619.6444   20632612.2164
        55.3004         49.4004
 128007228.9104   99745914.7014                   24358965.1904   24358955.5484
        43.1004         37.1004
 132000823.7864  102857783.8064                   25118944.2424   25118932.4374
        41.0004         36.2004
 108516529.0224   84558361.1194                   20650013.8364   20650006.6664
        53.6004         47.9004
 130510521.0994  101696536.9004                   24835333.4204   24835322.7444
        39.3004         36.8004
 12 10 10 16 19  0.0000000  0 11G01G04G08G09G11G15G17G20G26G28G32
 116161905.9884   90515792.2804                   22104878.9884   22104868.3254
        48.9004         45.4004
 124519564.3774   97028259.0014                   23695285.7434   23695274.0274
        44.3004         35.5004
 117547322.8594   91595325.4674                   22368526.1904   22368516.4124
        47.0004         41.2004
 122435290.6494   95404121.3154                   23298665.2344   23298659.8124
        46.5004         36.1004
 123226545.4174   96020702.5444                   23449240.0714   23449234.5004
        43.7004         35.3004
 131643437.9954  102579307.6294                   25050927.9204   25050921.8274
        42.8004         36.2004
 108399331.3694   84467045.8684                   20627707.1764   20627699.6184
        55.0004         50.0004
 127933951.6314   99688815.5874                   24345021.2534   24345011.8044
        43.2004         35.4004
 132098912.9094  102934216.7094                   25137612.2134   25137601.5114
        43.8004         36.8004
 108524848.3264   84564843.6784                   20651596.9174   20651589.6644
        53.5004         48.1004
 130468697.2834  101663946.9334                   24827373.8494   24827362.7084
        39.8004         37.6004
 12 10 10 16 19 30.0000000  0 11G01G04G08G09G11G15G17G20G26G28G32
 116224600.1774   90564644.8754                   22116809.2504   22116799.0024
        49.2004         44.5004
 124401557.9624   96936306.0974                   23672828.1934   23672818.1714
        46.0004         32.3004
 117654488.2214   91678830.8134                   22388919.0084   22388911.2074
        48.7004         39.7004
 122341150.8164   95330765.6344                   23280752.1244   23280740.7744
        42.6004         39.0004
 123326445.7504   96098546.9294                   23468254.7004   23468242.6684
        42.7004         37.7004
 131699064.9914  102622653.1944                   25061514.9394   25061504.2164
        42.1004         38.3004
 108373860.2474   84447198.2284                   20622860.0774   20622852.4664
        55.1004         49.4004
 127860917.3774   99631905.8624                   24331122.2234   24331113.5544
        43.1004         34.8004
 132197075.6784  103010706.9634                   25156290.6154   25156278.5384
        41.5004         35.0004
 108533491.0344   84571578.2414                   20653241.4564   20653234.4694
        53.3004         48.2004
 130427283.7854  101631676.6964                   24819494.4784   24819481.2404
        38.7004         38.9004
 12 10 10 16 20  0.0000000  0 11G01G04G08G09G11G15G17G20G26G28G32
 116287773.2614   90613870.6374                   22128830.6514   22128820.0474
        49.0004         45.0004
 124283671.9704   96844446.9514                   23650393.8094   23650384.9444
        46.0004         32.6004
 117761964.6034   91762578.5154                   22409370.9874   22409362.6134
        48.1004         39.8004
 122247423.3714   95257731.3344                   23262917.9944   23262906.5264
        43.5004         40.4004
 123426602.0494   96176590.7094                   23487310.6794   23487302.6384
        43.2004         36.8004
 131755014.6574  102666250.2154                   25072161.3814   25072152.9904
        42.2004         38.0004
 108348732.9284   84427618.5004                   20618078.6564   20618071.0354
        55.4004         49.6004
 127788128.9884   99575187.6954                   24317269.3374   24317262.8424
        41.9004         34.0004
 132295308.7644  103087252.0454                   25174982.2534   25174971.4184
        39.8004         34.9004
 108542458.2274   84578565.6474                   20654947.9344   20654941.0184
        53.6004         48.5004
 130386282.8734  101599727.9144                   24811690.4514   24811681.4954
        40.7004         35.9004
 12 10 10 16 20 30.0000000  0 11G01G04G08G09G11G15G17G20G26G28G32
 116351423.1244   90663467.9034                   22140943.3364   22140932.9364
        49.2004         45.6004
 124165909.1814   96752683.8734                   23627986.5204   23627974.4734
        44.1004         35.1004
 117869749.1124   91846566.3394                   22429882.7224   22429872.5454
        47.3004         40.9004
 122154111.5334   95185020.8624                   23245161.2874   23245151.4504
        45.9004         41.6004
 123527011.6984   96254831.9424                   23506417.3874   23506410.9784
        43.3004         35.8004
 131811284.5084  102710096.7074                   25082870.1734   25082861.7494
        42.7004         37.7004
 108323949.2374   84408306.5254                   20613361.9794   20613354.4734
        55.0004         50.0004
 127715589.7404   99518663.7164                   24303468.6394   24303458.7834
        42.2004         35.3004
 132393609.0204  103163849.4834                   25193689.4594   25193679.4344
        40.0004         36.7004
 108551750.7784   84585806.5794                   20656716.4294   20656709.3114
        53.7004         48.0004
 130345696.6824  101568102.3614                   24803966.9954   24803958.4784
        40.1004         34.0004
 12 10 10 16 21  0.0000000  0 11G01G04G08G09G11G15G17G20G26G28G32
 116415547.1534   90713434.6364                   22153145.3584   22153134.7804
        48.9004         45.2004
 124048271.7134   96661018.4684                   23605599.2744   23605589.1884
        43.5004         35.7004
